{
  "version": 0.6,
  "generator": "Overpass API 0.7.57 93a4d346",
  "osm3s": {
    "timestamp_osm_base": "2022-01-23T03:11:10Z",
    "copyright": "The data included in this document is from www.openstreetmap.org. The data is made available under ODbL."
  },
  "elements": [
    {
      "type": "node",
      "id": 373216322,
      "lat": 34.5205464,
      "lon": 135.7124339,
      "tags": {
        "amenity": "restaurant",
        "created_by": "Merkaartor 0.11",
        "cuisine": "pizza",
        "name": "マガジーノ",
        "website": "http://www.magazzino.co.jp/"
      }
    },
    {
      "type": "node",
      "id": 604259346,
      "lat": 34.5767229,
      "lon": 135.4679992,
      "tags": {
        "amenity": "restaurant",
        "name": "プノンペン"
      }
    },
    {
      "type": "node",
      "id": 661994893,
      "lat": 34.4557903,
      "lon": 135.457448,
      "tags": {
        "amenity": "restaurant",
        "name": "むがく庵"
      }
    },
    {
      "type": "node",
      "id": 1095772651,
      "lat": 34.587186,
      "lon": 135.71333,
      "tags": {
        "amenity": "restaurant",
        "cuisine": "italian",
        "highway": "traffic_signals",
        "name": "中山台2丁目;ドルチェカンパーニャ"
      }
    },
    {
      "type": "node",
      "id": 1241922281,
      "lat": 34.4658608,
      "lon": 135.4654447,
      "tags": {
        "amenity": "restaurant",
        "name": "のらや"
      }
    },
    {
      "type": "node",
      "id": 1249909094,
      "lat": 34.4309892,
      "lon": 135.3677752,
      "tags": {
        "amenity": "restaurant",
        "cuisine": "chinese",
        "name": "石才飯店",
        "source": "Bing,2007-09"
      }
    },
    {
      "type": "node",
      "id": 1287681230,
      "lat": 34.6641654,
      "lon": 135.5039801,
      "tags": {
        "amenity": "restaurant",
        "name": "釜たけうどん",
        "name:en": "Kamatake Udon"
      }
    },
    {
      "type": "node",
      "id": 1287681324,
      "lat": 34.663968,
      "lon": 135.50395,
      "tags": {
        "amenity": "restaurant",
        "name": "千とせ",
        "name:en": "Chitose",
        "wheelchair": "no"
      }
    },
    {
      "type": "node",
      "id": 1483765499,
      "lat": 34.6856125,
      "lon": 135.7529152,
      "tags": {
        "amenity": "restaurant",
        "brand": "木曽路",
        "brand:en": "Kisoji",
        "brand:ja": "木曽路",
        "brand:wikidata": "Q11518589",
        "brand:wikipedia": "ja:木曽路 (企業)",
        "cuisine": "japanese",
        "name": "木曽路",
        "name:en": "Kisoji",
        "name:ja": "木曽路",
        "name:ja_rm": "Kisoji",
        "source": "knowledge"
      }
    },
    {
      "type": "node",
      "id": 1483765542,
      "lat": 34.6879297,
      "lon": 135.7529855,
      "tags": {
        "addr:block_number": "94",
        "addr:city": "奈良市",
        "addr:country": "JP",
        "addr:neighbourhood": "1",
        "addr:province": "奈良県",
        "addr:quarter": "中町",
        "amenity": "restaurant",
        "branch": "奈良学園前",
        "brand": "サイゼリヤ",
        "brand:en": "Saizeriya",
        "contact:phone": "0742-52-9008",
        "contact:website": "https://www.saizeriya.co.jp/restaurant/shop_detail.php?cd=688",
        "cuisine": "italian",
        "name": "サイゼリヤ",
        "name:en": "Saizeriya",
        "name:ja": "サイゼリヤ",
        "name:ja_rm": "Saizeriya",
        "opening_hours": "11:00-00:00",
        "operator": "株式会社サイゼリヤ",
        "parking": "yes",
        "shop_id": "688"
      }
    },
    {
      "type": "node",
      "id": 1483765575,
      "lat": 34.6854886,
      "lon": 135.753302,
      "tags": {
        "amenity": "restaurant",
        "cuisine": "steak_house",
        "name": "食道園",
        "name:en": "Shokudōen",
        "name:ja": "食道園",
        "source": "knowledge"
      }
    },
    {
      "type": "node",
      "id": 1483765580,
      "lat": 34.6856968,
      "lon": 135.753898,
      "tags": {
        "amenity": "restaurant",
        "cuisine": "japanese",
        "name": "とんかつかつ喜 (Katsuyoshi)",
        "source": "knowledge"
      }
    },
    {
      "type": "node",
      "id": 1509364348,
      "lat": 34.6686572,
      "lon": 135.4756031,
      "tags": {
        "amenity": "restaurant",
        "branch": "大阪ドーム店‎",
        "brand": "杵屋",
        "cuisine": "noodle",
        "cuisine:ja": "うどん",
        "level": "1",
        "name": "杵屋",
        "name:en": "KINEYA",
        "name:ja": "杵屋",
        "name:ja_rm": "Kineya",
        "operator": "グルメ杵屋",
        "source": "survey"
      }
    },
    {
      "type": "node",
      "id": 1618299639,
      "lat": 34.6811255,
      "lon": 135.5372028,
      "tags": {
        "amenity": "restaurant",
        "brand": "Royal Host",
        "name": "ロイヤルホスト",
        "name:en": "Royal Host",
        "name:ja": "ロイヤルホスト",
        "name:ja_rm": "Roiyaruhosuto",
        "source": "Knowledge"
      }
    },
    {
      "type": "node",
      "id": 1619040366,
      "lat": 34.6744805,
      "lon": 135.4774281,
      "tags": {
        "amenity": "restaurant",
        "branch": "九条店",
        "brand": "ごはん処 やよい軒",
        "level": "0",
        "name": "やよい軒",
        "name:en": "YAYOIKEN",
        "name:ja": "やよい軒",
        "name:ja_rm": "Yayoiken",
        "operator": "プレナス",
        "source": "survey",
        "wheelchair": "limited"
      }
    },
    {
      "type": "node",
      "id": 1619040480,
      "lat": 34.6752373,
      "lon": 135.4749756,
      "tags": {
        "addr:city": "大阪府大阪市西区",
        "addr:housenumber": "１３−７",
        "addr:postcode": "550-0027",
        "addr:street": "九条１丁目",
        "amenity": "restaurant",
        "branch": "九条店",
        "cuisine": "japanese",
        "name": "宇奈とと九条店（鰻丼）",
        "phone": "06-4393-6969",
        "source": "survey"
      }
    },
    {
      "type": "node",
      "id": 1619040549,
      "lat": 34.6749826,
      "lon": 135.4758148,
      "tags": {
        "amenity": "restaurant",
        "branch": "九条店",
        "brand": "餃子の王将",
        "brand:en": "Gyoza no Ohsho",
        "brand:ja": "餃子の王将",
        "brand:wikidata": "Q11666805",
        "brand:wikipedia": "en:Gyoza no Ohsho",
        "cuisine": "chinese;gyoza",
        "name": "餃子の王将",
        "name:en": "Gyoza no Ohsho",
        "name:ja": "餃子の王将",
        "name:ja_rm": "Gyoza No Ohsho",
        "operator": "王将フードサービス",
        "source": "survey",
        "takeaway": "yes",
        "wheelchair": "no"
      }
    },
    {
      "type": "node",
      "id": 1629885088,
      "lat": 34.6698873,
      "lon": 135.4732095,
      "tags": {
        "amenity": "restaurant",
        "branch": "フォレオ大阪ドームシティ店",
        "brand": "びっくりドンキー",
        "brand:en": "Bikkuri Donkey",
        "brand:ja": "びっくりドンキー",
        "brand:wikidata": "Q11276815",
        "brand:wikipedia": "ja:びっくりドンキー",
        "cuisine": "burger",
        "cuisine:ja": "うどん",
        "level": "0",
        "name": "びっくりドンキー",
        "name:en": "Bikkuri Donkey",
        "name:ja": "びっくりドンキー",
        "name:ja_rm": "Bikkuri Donki",
        "operator": "アレフ",
        "source": "survey"
      }
    },
    {
      "type": "node",
      "id": 1629885121,
      "lat": 34.6693619,
      "lon": 135.4735126,
      "tags": {
        "addr:block_number": "12",
        "addr:city": "大阪市",
        "addr:country": "JP",
        "addr:housename": "フォレオ大阪ドームシティ",
        "addr:housenumber": "33",
        "addr:neighbourhood": "1",
        "addr:postcode": "550-0025",
        "addr:province": "大阪府",
        "addr:quarter": "九条南",
        "addr:suburb": "西区",
        "amenity": "restaurant",
        "branch": "フォレオ大阪ドームシティ",
        "brand": "サイゼリヤ",
        "brand:en": "Saizeriya",
        "brand:ja": "サイゼリヤ",
        "brand:wikidata": "Q886564",
        "brand:wikipedia": "en:Saizeriya",
        "contact:phone": "06-4393-0880",
        "contact:website": "https://www.saizeriya.co.jp/restaurant/shop_detail.php?cd=1000",
        "cuisine": "italian",
        "level": "1",
        "name": "サイゼリヤ",
        "name:en": "Saizeriya",
        "name:ja": "サイゼリヤ",
        "name:ja_rm": "Saizeriya",
        "opening_hours": "10:00-02:00",
        "operator": "株式会社サイゼリヤ",
        "parking": "yes",
        "shop_id": "1000",
        "source": "survey",
        "wheelchair": "yes"
      }
    },
    {
      "type": "node",
      "id": 1635081037,
      "lat": 34.6766399,
      "lon": 135.463379,
      "tags": {
        "amenity": "restaurant",
        "source": "Bing,2008-03; survey"
      }
    },
    {
      "type": "node",
      "id": 1636748697,
      "lat": 34.6778486,
      "lon": 135.4679242,
      "tags": {
        "amenity": "restaurant",
        "level": "0",
        "name": "ふぐ安",
        "source": "survey"
      }
    },
    {
      "type": "node",
      "id": 1636748703,
      "lat": 34.6761826,
      "lon": 135.4725271,
      "tags": {
        "amenity": "restaurant",
        "cuisine:ja": "しゃぶしゃぶ",
        "name": "キシャル",
        "source": "Bing,2008-03; survey"
      }
    },
    {
      "type": "node",
      "id": 1636748758,
      "lat": 34.6762112,
      "lon": 135.4724562,
      "tags": {
        "amenity": "restaurant",
        "cuisine:ja": "焼き鳥",
        "name": "一番",
        "source": "Bing,2008-03; survey",
        "takeaway": "only"
      }
    },
    {
      "type": "node",
      "id": 1636748825,
      "lat": 34.6773122,
      "lon": 135.4696657,
      "tags": {
        "amenity": "restaurant",
        "delivery": "yes",
        "name": "栗山",
        "source": "survey"
      }
    },
    {
      "type": "node",
      "id": 1637693738,
      "lat": 34.6685394,
      "lon": 135.5426116,
      "tags": {
        "amenity": "restaurant",
        "brand": "ガスト",
        "brand:en": "Gusto",
        "brand:ja": "ガスト",
        "brand:wikidata": "Q87724117",
        "cuisine": "western;japanese",
        "name": "ガスト",
        "name:en": "Gusto",
        "name:ja": "ガスト",
        "name:ja_rm": "Gasuto"
      }
    },
    {
      "type": "node",
      "id": 1637849031,
      "lat": 34.6743506,
      "lon": 135.4762571,
      "tags": {
        "amenity": "restaurant",
        "cuisine": "japanese",
        "cuisine:ja": "鍋",
        "name": "小川下",
        "name:ja_rm": "kokage",
        "source": "Bing,2008-03; survey"
      }
    },
    {
      "type": "node",
      "id": 1643123439,
      "lat": 34.6806461,
      "lon": 135.4665895,
      "tags": {
        "amenity": "restaurant",
        "name": "和処 たかはし",
        "source": "Bing,2008-03; survey"
      }
    },
    {
      "type": "node",
      "id": 1643123445,
      "lat": 34.6803286,
      "lon": 135.4667923,
      "tags": {
        "amenity": "restaurant",
        "cuisine": "焼肉",
        "name": "焼肉 味味亭",
        "note": "閉店",
        "source": "Bing,2008-03; survey"
      }
    },
    {
      "type": "node",
      "id": 1643123452,
      "lat": 34.681576,
      "lon": 135.4659427,
      "tags": {
        "amenity": "restaurant",
        "cuisine": "barbecue",
        "name": "金海",
        "source": "survey"
      }
    },
    {
      "type": "node",
      "id": 1668337275,
      "lat": 34.5004572,
      "lon": 135.5468976,
      "tags": {
        "amenity": "restaurant",
        "branch": "亀の甲店",
        "brand": "餃子の王将",
        "cuisine": "chinese",
        "name": "餃子の王将",
        "name:en": "Gyoza no Ohsho",
        "name:ja": "餃子の王将",
        "name:ja-Latn": "Gyōza no Ōshō",
        "name:ja_kana": "ぎょうざのおうしょう",
        "name:ja_rm": "Gyōza no Ōshō",
        "phone": "+81 72 365 6888"
      }
    },
    {
      "type": "node",
      "id": 1668343571,
      "lat": 34.497893,
      "lon": 135.5475616,
      "tags": {
        "amenity": "restaurant",
        "cuisine": "japanese",
        "name": "阿波水産"
      }
    },
    {
      "type": "node",
      "id": 1668352895,
      "lat": 34.4980434,
      "lon": 135.5475695,
      "tags": {
        "amenity": "restaurant",
        "brand": "ガスト",
        "name": "しゃぶ葉",
        "name:ja": "しゃぶ葉"
      }
    },
    {
      "type": "node",
      "id": 1671339421,
      "lat": 34.6687875,
      "lon": 135.4946077,
      "tags": {
        "amenity": "restaurant",
        "cuisine": "american",
        "name": "LOGIC"
      }
    },
    {
      "type": "node",
      "id": 1671341600,
      "lat": 34.6688906,
      "lon": 135.5015159,
      "tags": {
        "addr:postcode": "542-0071",
        "amenity": "restaurant",
        "branch": "道頓堀本店",
        "brand": "かに道楽",
        "cuisine": "seafood",
        "name": "かに道楽",
        "name:en": "Kanidoraku",
        "name:ja": "かに道楽",
        "name:ja-Latn": "Kanidoraku",
        "name:ko": "카니도라쿠",
        "name:zh": "道乐螃蟹专门店",
        "opening_hours": "Mo-Su 11:00-23:00",
        "operator": "かに道楽",
        "source": "Bing 2010, (URL)",
        "website": "http://douraku.co.jp/",
        "wikidata": "Q11264072",
        "wikipedia": "ja:かに道楽"
      }
    },
    {
      "type": "node",
      "id": 1675266738,
      "lat": 34.682876,
      "lon": 135.4986114,
      "tags": {
        "amenity": "restaurant",
        "branch": "本町店",
        "cuisine": "japanese",
        "name": "馳走庵",
        "name:ja": "馳走庵",
        "website": "http://www.chisouan.com/honmachi.html"
      }
    },
    {
      "type": "node",
      "id": 1714487642,
      "lat": 34.6815895,
      "lon": 135.4666633,
      "tags": {
        "amenity": "restaurant",
        "cuisine": "sushi",
        "cuisine:ja": "すし",
        "name": "冨喜寿司",
        "source": "Bing,2008-03; survey"
      }
    },
    {
      "type": "node",
      "id": 1715392874,
      "lat": 34.6130978,
      "lon": 135.490419,
      "tags": {
        "amenity": "restaurant",
        "cuisine": "chinese",
        "name": "広州"
      }
    },
    {
      "type": "node",
      "id": 1715392877,
      "lat": 34.6131281,
      "lon": 135.4904252,
      "tags": {
        "amenity": "restaurant",
        "brand": "杵屋",
        "cuisine": "noodle",
        "cuisine:ja": "手打ちうどん",
        "name": "杵屋",
        "name:en": "KINEYA",
        "name:ja": "杵屋",
        "name:ja_rm": "Kineya"
      }
    },
    {
      "type": "node",
      "id": 1715573680,
      "lat": 34.6286258,
      "lon": 135.4965054,
      "tags": {
        "amenity": "restaurant",
        "cuisine": "regional",
        "cuisine:ja": "お好み焼き",
        "name": "呑気",
        "name:en": "Nonki"
      }
    },
    {
      "type": "node",
      "id": 1715573685,
      "lat": 34.6285191,
      "lon": 135.4948878,
      "tags": {
        "amenity": "restaurant",
        "cuisine": "noodle",
        "cuisine:ja": "うどん、めし",
        "name": "更科",
        "name:en": "Sarashina"
      }
    },
    {
      "type": "node",
      "id": 1716037081,
      "lat": 34.6683052,
      "lon": 135.4870516,
      "tags": {
        "amenity": "restaurant",
        "name": "がばちょ"
      }
    },
    {
      "type": "node",
      "id": 1716037270,
      "lat": 34.6682892,
      "lon": 135.4875947,
      "tags": {
        "amenity": "restaurant",
        "cuisine": "chinese",
        "name": "北京"
      }
    },
    {
      "type": "node",
      "id": 1716037273,
      "lat": 34.6682719,
      "lon": 135.4877665,
      "tags": {
        "amenity": "restaurant",
        "name": "紀州屋"
      }
    },
    {
      "type": "node",
      "id": 1717579108,
      "lat": 34.629938,
      "lon": 135.6019506,
      "tags": {
        "amenity": "restaurant",
        "brand": "めしや 宮本むなし",
        "name": "宮本むなし",
        "name:en": "Miyamoto Munashi",
        "name:ja": "宮本むなし",
        "name:ja_rm": "Miyamoto Munashi",
        "opening_hours": "24/7"
      }
    },
    {
      "type": "node",
      "id": 1718692846,
      "lat": 34.6276111,
      "lon": 135.6200357,
      "tags": {
        "amenity": "restaurant",
        "name": "串かつ はまゆう"
      }
    },
    {
      "type": "node",
      "id": 1719101643,
      "lat": 34.6278549,
      "lon": 135.6205358,
      "tags": {
        "amenity": "restaurant",
        "brand": "餃子の王将",
        "cuisine": "chinese",
        "name": "餃子の王将",
        "name:en": "OHSHO",
        "name:ja": "餃子の王将",
        "name:ja_rm": "Gyoza No Ohsho"
      }
    },
    {
      "type": "node",
      "id": 1725205433,
      "lat": 34.6314075,
      "lon": 135.5641729,
      "tags": {
        "amenity": "restaurant",
        "name": "ジョイフル",
        "source": "survey"
      }
    },
    {
      "type": "node",
      "id": 1726525104,
      "lat": 34.6776761,
      "lon": 135.4730719,
      "tags": {
        "amenity": "restaurant",
        "branch": "九条本店",
        "cuisine:ja": "焼肉",
        "level": "0",
        "name": "焼肉 たつみや"
      }
    },
    {
      "type": "node",
      "id": 1733914956,
      "lat": 34.6776503,
      "lon": 135.7078288,
      "tags": {
        "amenity": "restaurant",
        "cuisine": "sushi",
        "name": "生駒寿し"
      }
    },
    {
      "type": "node",
      "id": 1733914957,
      "lat": 34.6760174,
      "lon": 135.7079997,
      "tags": {
        "amenity": "restaurant",
        "branch": "2号店",
        "cuisine": "regional",
        "name": "茄萌",
        "name:ja": "茄萌"
      }
    },
    {
      "type": "node",
      "id": 1734766307,
      "lat": 34.513354,
      "lon": 135.6042779,
      "tags": {
        "amenity": "restaurant",
        "cuisine": "japanese",
        "name": "のらや",
        "source": "Survey"
      }
    },
    {
      "type": "node",
      "id": 1734772660,
      "lat": 34.5129805,
      "lon": 135.6040177,
      "tags": {
        "amenity": "restaurant",
        "name": "五右衛門",
        "source": "Survey"
      }
    },
    {
      "type": "node",
      "id": 1734845940,
      "lat": 34.6743595,
      "lon": 135.4669273,
      "tags": {
        "amenity": "restaurant",
        "level": "0",
        "name": "哈爾濱飯店",
        "source": "Bing,2008-03; survey"
      }
    },
    {
      "type": "node",
      "id": 1735442592,
      "lat": 34.6751063,
      "lon": 135.475424,
      "tags": {
        "amenity": "restaurant",
        "cuisine:ja": "焼肉",
        "name": "かどや",
        "source": "Bing,2008-03; survey"
      }
    },
    {
      "type": "node",
      "id": 1735442600,
      "lat": 34.6740242,
      "lon": 135.4770357,
      "tags": {
        "amenity": "restaurant",
        "cuisine": "japanese",
        "name": "つばき",
        "source": "Bing,2008-03; survey"
      }
    },
    {
      "type": "node",
      "id": 1735923681,
      "lat": 34.58575,
      "lon": 135.7843851,
      "tags": {
        "amenity": "restaurant",
        "cuisine": "sushi",
        "name": "あづま寿司"
      }
    },
    {
      "type": "node",
      "id": 1735949550,
      "lat": 34.6736692,
      "lon": 135.478642,
      "tags": {
        "amenity": "restaurant",
        "branch": "大阪西店",
        "delivery": "yes",
        "name": "ご馳走屋惣兵衛",
        "source": "Bing,2008-03; survey"
      }
    },
    {
      "type": "node",
      "id": 1735949989,
      "lat": 34.6747763,
      "lon": 135.4782706,
      "tags": {
        "amenity": "restaurant",
        "cuisine:ja": "焼肉",
        "level": "0",
        "name": "九条アジヨシ",
        "source": "survey"
      }
    },
    {
      "type": "node",
      "id": 1735949993,
      "lat": 34.6745574,
      "lon": 135.4781287,
      "tags": {
        "amenity": "restaurant",
        "cuisine": "noodle",
        "cuisine:ja": "ラーメン",
        "name": "九条亭"
      }
    },
    {
      "type": "node",
      "id": 1735950018,
      "lat": 34.6741645,
      "lon": 135.4781888,
      "tags": {
        "amenity": "restaurant",
        "level": "0",
        "name": "吉林菜館",
        "source": "survey",
        "wheelchair": "limited"
      }
    },
    {
      "type": "node",
      "id": 1735950022,
      "lat": 34.6748809,
      "lon": 135.4761561,
      "tags": {
        "amenity": "restaurant",
        "name": "味わい処 お多福",
        "source": "survey"
      }
    },
    {
      "type": "node",
      "id": 1735950047,
      "lat": 34.6744934,
      "lon": 135.4780852,
      "tags": {
        "amenity": "restaurant",
        "branch": "九条本店",
        "cuisine": "noodle",
        "cuisine:ja": "ラーメン",
        "name": "天洋"
      }
    },
    {
      "type": "node",
      "id": 1736430807,
      "lat": 34.6659637,
      "lon": 135.4783192,
      "tags": {
        "amenity": "restaurant",
        "branch": "JR大正駅前店",
        "brand": "めしや 宮本むなし",
        "cuisine": "japanese",
        "name": "宮本むなし",
        "name:en": "Miyamoto Munashi",
        "name:ja": "宮本むなし",
        "name:ja_rm": "Miyamoto Munashi",
        "opening_hours": "24/7",
        "operator": "宮本むなし",
        "source": "Bing,2008-03; survey"
      }
    },
    {
      "type": "node",
      "id": 1737831342,
      "lat": 34.6620127,
      "lon": 135.4981737,
      "tags": {
        "amenity": "restaurant",
        "brand": "つるまる",
        "cuisine": "noodle;ramen",
        "cuisine:ja": "うどん・そば",
        "name": "つるまる",
        "name:en": "Tsurumaru",
        "name:ja": "つるまる",
        "name:ja_rm": "Tsurumaru"
      }
    },
    {
      "type": "node",
      "id": 1737873047,
      "lat": 34.6641791,
      "lon": 135.499644,
      "tags": {
        "amenity": "restaurant",
        "cuisine": "sushi"
      }
    },
    {
      "type": "node",
      "id": 1738362660,
      "lat": 34.6685903,
      "lon": 135.5019452,
      "tags": {
        "addr:postcode": "542-0071",
        "amenity": "restaurant",
        "branch": "道頓堀店",
        "brand": "がんこ寿司",
        "cuisine": "sushi",
        "name": "がんこ寿司",
        "name:en": "Gankozushi",
        "name:ja": "がんこ寿司",
        "name:ja-Latn": "Gankozushi",
        "operator": "がんこフードサービス",
        "source": "Knowledge",
        "website": "http://www.gankofood.co.jp/"
      }
    },
    {
      "type": "node",
      "id": 1831548297,
      "lat": 34.6396468,
      "lon": 135.5180441,
      "tags": {
        "amenity": "restaurant",
        "brand": "ガスト",
        "brand:en": "Gusto",
        "brand:ja": "ガスト",
        "brand:wikidata": "Q87724117",
        "cuisine": "western;japanese",
        "name": "ガスト",
        "name:en": "Gusto",
        "name:ja": "ガスト",
        "name:ja_rm": "Gasuto",
        "operator": "すかいらーく",
        "source": "Bing 2010",
        "website": "https://www.skylark.co.jp/gusto/"
      }
    },
    {
      "type": "node",
      "id": 1831589541,
      "lat": 34.637124,
      "lon": 135.5174673,
      "tags": {
        "amenity": "restaurant",
        "brand": "ロイヤルホスト",
        "brand:en": "Royal Host",
        "brand:ja": "ロイヤルホスト",
        "brand:wikidata": "Q11120884",
        "brand:wikipedia": "ja:ロイヤルホスト",
        "cuisine": "japanese;italian;french",
        "name": "ロイヤルホスト",
        "name:en": "Royal Host",
        "name:ja": "ロイヤルホスト",
        "name:ja_rm": "Roiyaruhosuto",
        "operator": "ロイヤルホスト",
        "source": "Bing 2010",
        "website": "https://www.royalhost.jp/"
      }
    },
    {
      "type": "node",
      "id": 1831615495,
      "lat": 34.6544726,
      "lon": 135.5327073,
      "tags": {
        "amenity": "restaurant",
        "brand": "和食さと",
        "cuisine": "japanese",
        "name": "さと",
        "name:en": "SATO",
        "name:ja": "さと",
        "name:ja_rm": "Sato",
        "operator": "サトレストランシステムズ",
        "source": "Bing 2010",
        "website": "http://www.sato-restaurant-systems.co.jp/"
      }
    },
    {
      "type": "node",
      "id": 1877545913,
      "lat": 34.6220868,
      "lon": 135.508142,
      "tags": {
        "amenity": "restaurant",
        "cuisine": "sushi",
        "name": "はりま屋"
      }
    },
    {
      "type": "node",
      "id": 1888275521,
      "lat": 34.6663892,
      "lon": 135.5056634,
      "tags": {
        "amenity": "restaurant",
        "cuisine": "ramen",
        "internet_access": "no",
        "name": "尾道ラーメン 月光仮面",
        "source": "Knowledge",
        "stars": "2",
        "wheelchair": "no"
      }
    },
    {
      "type": "node",
      "id": 1906846240,
      "lat": 34.6634165,
      "lon": 135.5027209,
      "tags": {
        "amenity": "restaurant",
        "brand": "やよい軒",
        "brand:en": "Yayoiken",
        "brand:ja": "やよい軒",
        "brand:wikidata": "Q11280577",
        "brand:wikipedia": "ja:やよい軒",
        "cuisine": "japanese",
        "name": "やよい軒",
        "name:en": "Yayoiken",
        "name:ja": "やよい軒",
        "name:ja_rm": "Yayoiken",
        "source": "Knowledge"
      }
    },
    {
      "type": "node",
      "id": 1906846937,
      "lat": 34.6661463,
      "lon": 135.5031404,
      "tags": {
        "amenity": "restaurant",
        "cuisine": "居酒屋",
        "name": "正宗屋",
        "source": "Bing,2011-4"
      }
    },
    {
      "type": "node",
      "id": 1906846938,
      "lat": 34.6661855,
      "lon": 135.5031402,
      "tags": {
        "amenity": "restaurant",
        "cuisine": "noodle;ramen",
        "name": "三田製麺所",
        "source": "Bing,2011-4",
        "wheelchair": "no"
      }
    },
    {
      "type": "node",
      "id": 1906846949,
      "lat": 34.6653031,
      "lon": 135.5033919,
      "tags": {
        "addr:housenumber": "11-20",
        "addr:postcode": "542-0075",
        "addr:street": "なんば千日前通",
        "amenity": "restaurant",
        "brand": "丸亀製麺",
        "brand:en": "Marugame Seimen",
        "brand:ja": "丸亀製麺",
        "brand:wikidata": "Q10877253",
        "brand:wikipedia": "ja:丸亀製麺",
        "cuisine": "noodle",
        "name": "丸亀製麺",
        "name:en": "Marugame Seimen",
        "name:ja": "丸亀製麺",
        "opening_hours": "Mo-Su 10:00-23:00",
        "phone": "0666345022",
        "source": "Bing,2011-4",
        "wheelchair": "no"
      }
    },
    {
      "type": "node",
      "id": 1906846974,
      "lat": 34.6652567,
      "lon": 135.5033931,
      "tags": {
        "amenity": "restaurant",
        "cuisine": "noodle;ramen",
        "name": "金龍ラーメン",
        "name:en": "Kinryu Ramen",
        "source": "Bing,2011-4",
        "wheelchair": "no"
      }
    },
    {
      "type": "node",
      "id": 1916535827,
      "lat": 34.5294456,
      "lon": 135.6046854,
      "tags": {
        "amenity": "restaurant",
        "cuisine": "chinese",
        "name": "天下第一",
        "source": "Bing,2011-4"
      }
    },
    {
      "type": "node",
      "id": 1937607811,
      "lat": 34.5135912,
      "lon": 135.6045111,
      "tags": {
        "amenity": "restaurant",
        "brand": "ガスト",
        "brand:en": "Gusto",
        "brand:ja": "ガスト",
        "brand:wikidata": "Q87724117",
        "cuisine": "western;japanese",
        "name": "ガスト",
        "name:en": "Gusto",
        "name:ja": "ガスト",
        "name:ja_rm": "Gasuto",
        "source": "Bing 2010"
      }
    },
    {
      "type": "node",
      "id": 1949133680,
      "lat": 34.5256074,
      "lon": 135.6052545,
      "tags": {
        "amenity": "restaurant",
        "cuisine": "japanese",
        "name": "とんかつかつ喜",
        "opening_hours": "11:00-23:00 \"please validate\"",
        "phone": "0721-20-1855",
        "source": "Survey"
      }
    },
    {
      "type": "node",
      "id": 1949135555,
      "lat": 34.5255617,
      "lon": 135.6047322,
      "tags": {
        "amenity": "restaurant",
        "cuisine": "japanese",
        "name": "炭火焼肉まつり家",
        "opening_hours": "11:00-23:00 \"please validate\"",
        "phone": "0721-20-1855",
        "source": "Survey"
      }
    },
    {
      "type": "node",
      "id": 1952386324,
      "lat": 34.5241683,
      "lon": 135.6047962,
      "tags": {
        "amenity": "restaurant",
        "name": "喜神菜館"
      }
    },
    {
      "type": "node",
      "id": 1976416281,
      "lat": 34.6839014,
      "lon": 135.5584293,
      "tags": {
        "amenity": "restaurant",
        "cuisine": "japanese",
        "level": "1",
        "name": "かごの屋",
        "name:ja-Hira": "かごのや"
      }
    },
    {
      "type": "node",
      "id": 1976416291,
      "lat": 34.6689121,
      "lon": 135.5647575,
      "tags": {
        "amenity": "restaurant",
        "brand": "和食さと",
        "brand:en": "Washoku Sato",
        "brand:ja": "和食さと",
        "brand:wikidata": "Q11304897",
        "brand:wikipedia": "ja:SRSホールディングス",
        "cuisine": "japanese",
        "name": "和食さと",
        "name:en": "Washoku Sato",
        "name:ja": "和食さと",
        "name:ja_rm": "Sato",
        "name:zh": "佐藤餐厅"
      }
    },
    {
      "type": "node",
      "id": 1976416294,
      "lat": 34.6809244,
      "lon": 135.5580084,
      "tags": {
        "amenity": "restaurant",
        "cuisine": "japanese",
        "name": "のらや"
      }
    },
    {
      "type": "node",
      "id": 1976416322,
      "lat": 34.6691936,
      "lon": 135.5634945,
      "tags": {
        "amenity": "restaurant",
        "cuisine": "noodle;soba",
        "name": "山びこ",
        "name:en": "Yamabiko"
      }
    },
    {
      "type": "node",
      "id": 1976416450,
      "lat": 34.664183,
      "lon": 135.5661386,
      "tags": {
        "amenity": "restaurant",
        "branch": "布施店",
        "brand": "やよい軒",
        "brand:en": "Yayoiken",
        "brand:ja": "やよい軒",
        "brand:wikidata": "Q11280577",
        "brand:wikipedia": "ja:やよい軒",
        "cuisine": "japanese",
        "name": "やよい軒",
        "name:en": "Yayoiken",
        "name:ja": "やよい軒",
        "name:ja_rm": "Yayoiken"
      }
    },
    {
      "type": "node",
      "id": 1976416479,
      "lat": 34.6850817,
      "lon": 135.5586273,
      "tags": {
        "amenity": "restaurant",
        "brand": "天下一品",
        "brand:en": "Tenkaippin",
        "brand:wikidata": "Q11442172",
        "brand:wikipedia": "en:Tenkaippin",
        "cuisine": "ramen",
        "name": "天下一品",
        "name:en": "Tenkaippin",
        "name:ja": "天下一品",
        "name:ja_rm": "Tenka Ippin"
      }
    },
    {
      "type": "node",
      "id": 1976416513,
      "lat": 34.6845974,
      "lon": 135.5585112,
      "tags": {
        "amenity": "restaurant",
        "name": "510ステーキハウス"
      }
    },
    {
      "type": "node",
      "id": 1985361030,
      "lat": 34.6522454,
      "lon": 135.5133855,
      "tags": {
        "amenity": "restaurant",
        "cuisine": "noodle",
        "name": "うどんの前田"
      }
    },
    {
      "type": "node",
      "id": 1985361220,
      "lat": 34.68708,
      "lon": 135.5118183,
      "tags": {
        "amenity": "restaurant",
        "cuisine": "japanese",
        "name": "フジオ珈琲",
        "name:en": "FUJIO COFFEE"
      }
    },
    {
      "type": "node",
      "id": 2023047053,
      "lat": 34.6673923,
      "lon": 135.5062872,
      "tags": {
        "amenity": "restaurant",
        "brand": "やよい軒",
        "brand:en": "Yayoiken",
        "brand:ja": "やよい軒",
        "brand:wikidata": "Q11280577",
        "brand:wikipedia": "ja:やよい軒",
        "cuisine": "japanese",
        "name": "やよい軒",
        "name:en": "Yayoiken",
        "name:ja": "やよい軒",
        "name:ja_rm": "Yayoiken",
        "toilets:wheelchair": "no",
        "wheelchair": "yes"
      }
    },
    {
      "type": "node",
      "id": 2047988615,
      "lat": 34.5946131,
      "lon": 135.5025835,
      "tags": {
        "amenity": "restaurant",
        "cuisine": "中華料理屋",
        "name": "とり秀"
      }
    },
    {
      "type": "node",
      "id": 2049639842,
      "lat": 34.5824514,
      "lon": 135.7249027,
      "tags": {
        "amenity": "restaurant",
        "cuisine": "indian",
        "name": "Asiyana"
      }
    },
    {
      "type": "node",
      "id": 2049674592,
      "lat": 34.5810815,
      "lon": 135.7170344,
      "tags": {
        "amenity": "restaurant",
        "cuisine": "indian",
        "name": "Asiyana"
      }
    },
    {
      "type": "node",
      "id": 2052320466,
      "lat": 34.6761578,
      "lon": 135.4725687,
      "tags": {
        "amenity": "restaurant",
        "name": "うゑだ",
        "source": "survey,2012-04"
      }
    },
    {
      "type": "node",
      "id": 2052320469,
      "lat": 34.6766147,
      "lon": 135.4712805,
      "tags": {
        "amenity": "restaurant",
        "cuisine": "すし",
        "name": "すし政"
      }
    },
    {
      "type": "node",
      "id": 2052320512,
      "lat": 34.6770564,
      "lon": 135.4705168,
      "tags": {
        "amenity": "restaurant",
        "name": "海華飯店",
        "source": "survey,2012-04"
      }
    },
    {
      "type": "node",
      "id": 2052320514,
      "lat": 34.6758976,
      "lon": 135.4729741,
      "tags": {
        "amenity": "restaurant",
        "cuisine": "savory_pancakes",
        "cuisine:ja": "お好み焼",
        "name": "華",
        "source": "survey,2012-04"
      }
    },
    {
      "type": "node",
      "id": 2052320516,
      "lat": 34.6775548,
      "lon": 135.4691022,
      "tags": {
        "amenity": "restaurant",
        "cuisine": "savory_pancakes",
        "cuisine:ja": "お好み焼",
        "name": "都",
        "source": "survey,2012-04"
      }
    },
    {
      "type": "node",
      "id": 2052320517,
      "lat": 34.6770347,
      "lon": 135.4705638,
      "tags": {
        "amenity": "restaurant",
        "name": "香港飯店",
        "source": "survey,2012-04"
      }
    },
    {
      "type": "node",
      "id": 2063109365,
      "lat": 34.6632692,
      "lon": 135.5036546,
      "tags": {
        "amenity": "restaurant",
        "cuisine": "noodle",
        "name": "長崎ちゃんぽん",
        "name:en": "Nagasaki Champon",
        "operator": "リンガーハット",
        "wheelchair": "limited"
      }
    },
    {
      "type": "node",
      "id": 2074432571,
      "lat": 34.5754256,
      "lon": 135.4839761,
      "tags": {
        "addr:city": "大阪府堺市堺区",
        "addr:housenumber": "１−２１",
        "addr:postcode": "590-0076",
        "addr:street": "北瓦町２丁",
        "amenity": "restaurant",
        "branch": "堺東店",
        "brand": "餃子の王将",
        "brand:en": "Gyoza no Ohsho",
        "brand:ja": "餃子の王将",
        "brand:wikidata": "Q11666805",
        "brand:wikipedia": "en:Gyoza no Ohsho",
        "cuisine": "chinese;gyoza",
        "level": "0;1",
        "name": "餃子の王将",
        "name:en": "Gyoza no Ohsho",
        "name:ja": "餃子の王将",
        "phone": "+81 72-227-4322",
        "takeaway": "yes",
        "website": "https://ohsho.co.jp/",
        "wheelchair": "no"
      }
    },
    {
      "type": "node",
      "id": 2074472778,
      "lat": 34.5751316,
      "lon": 135.4825711,
      "tags": {
        "addr:city": "大阪府堺市堺区",
        "addr:housenumber": "３−１６",
        "addr:postcode": "590-0077",
        "addr:street": "中瓦町１丁",
        "amenity": "restaurant",
        "cuisine": "sushi",
        "name": "すし亭幹"
      }
    },
    {
      "type": "node",
      "id": 2094282309,
      "lat": 34.5501381,
      "lon": 135.6916755,
      "tags": {
        "amenity": "restaurant",
        "name": "ジョイフル奈良香芝店"
      }
    },
    {
      "type": "node",
      "id": 2125086879,
      "lat": 34.66838,
      "lon": 135.50062,
      "tags": {
        "amenity": "restaurant",
        "brand": "大阪王将",
        "brand:en": "Osaka Ohsho",
        "brand:ja": "大阪王将",
        "brand:wikidata": "Q48743717",
        "brand:wikipedia": "ja:大阪王将",
        "cuisine": "japanese;chinese",
        "name": "大阪王将",
        "name:en": "Osaka Ohsho",
        "name:ja": "大阪王将",
        "name:ja_rm": "Osaka Ohsho"
      }
    },
    {
      "type": "node",
      "id": 2125102619,
      "lat": 34.6708397,
      "lon": 135.5012343,
      "tags": {
        "amenity": "restaurant",
        "cuisine": "sushi",
        "name": "市場ずし"
      }
    },
    {
      "type": "node",
      "id": 2125103910,
      "lat": 34.671323,
      "lon": 135.501224,
      "tags": {
        "amenity": "restaurant",
        "brand": "はなまるうどん",
        "brand:en": "Hanamarūdon",
        "brand:ja": "はなまるうどん",
        "brand:wikidata": "Q11275674",
        "brand:wikipedia": "ja:はなまるうどん",
        "cuisine": "japanese;udon",
        "name": "はなまるうどん",
        "name:en": "Hanamarūdon",
        "name:ja": "はなまるうどん",
        "name:ja_rm": "Hanamaru Udon",
        "wheelchair": "yes"
      }
    },
    {
      "type": "node",
      "id": 2125111284,
      "lat": 34.6734534,
      "lon": 135.5017193,
      "tags": {
        "amenity": "restaurant",
        "brand": "餃子の王将",
        "brand:en": "Gyoza no Ohsho",
        "brand:ja": "餃子の王将",
        "brand:wikidata": "Q11666805",
        "brand:wikipedia": "en:Gyoza no Ohsho",
        "cuisine": "chinese;gyoza",
        "name": "餃子の王将",
        "name:en": "Gyoza no Ohsho",
        "name:ja": "餃子の王将",
        "name:ja_rm": "Gyoza No Ohsho",
        "takeaway": "yes"
      }
    },
    {
      "type": "node",
      "id": 2125135137,
      "lat": 34.674836,
      "lon": 135.504495,
      "tags": {
        "amenity": "restaurant",
        "cuisine": "noodle",
        "name": "希望軒",
        "wheelchair": "limited"
      }
    },
    {
      "type": "node",
      "id": 2128609870,
      "lat": 34.663579,
      "lon": 135.477024,
      "tags": {
        "amenity": "restaurant",
        "brand": "和食さと",
        "cuisine": "japanese",
        "name": "さと",
        "name:en": "SATO",
        "name:ja": "さと",
        "name:ja_rm": "Sato"
      }
    },
    {
      "type": "node",
      "id": 2140153452,
      "lat": 34.680493,
      "lon": 135.548831,
      "tags": {
        "amenity": "restaurant",
        "name": "フレンドリー",
        "name:ja": "フレンドリー",
        "name:zh": "友好餐馆"
      }
    },
    {
      "type": "node",
      "id": 2153003100,
      "lat": 34.685041,
      "lon": 135.51759,
      "tags": {
        "amenity": "restaurant",
        "brand": "めしや 宮本むなし",
        "cuisine": "japanese",
        "name": "宮本むなし",
        "name:en": "Miyamoto Munashi",
        "name:ja": "宮本むなし",
        "name:ja_rm": "Miyamoto Munashi"
      }
    },
    {
      "type": "node",
      "id": 2153003336,
      "lat": 34.684946,
      "lon": 135.517598,
      "tags": {
        "amenity": "restaurant",
        "cuisine": "curry",
        "internet_access": "wlan",
        "name": "カレーハウス Coco 壱番屋",
        "outdoor_seating": "no"
      }
    },
    {
      "type": "node",
      "id": 2154195714,
      "lat": 34.686063,
      "lon": 135.517584,
      "tags": {
        "amenity": "restaurant",
        "name": "焼肉ライク"
      }
    },
    {
      "type": "node",
      "id": 2154197452,
      "lat": 34.686532,
      "lon": 135.517574,
      "tags": {
        "amenity": "restaurant",
        "cuisine": "french",
        "name": "ル・クロ・ド・マリアージュ"
      }
    },
    {
      "type": "node",
      "id": 2154199378,
      "lat": 34.687623,
      "lon": 135.516984,
      "tags": {
        "amenity": "restaurant",
        "cuisine": "noodle",
        "name": "鶴丸饂飩本舗"
      }
    },
    {
      "type": "node",
      "id": 2155768276,
      "lat": 34.6859801,
      "lon": 135.5170278,
      "tags": {
        "amenity": "restaurant",
        "cuisine": "ramen",
        "name": "ラーメン 四天王"
      }
    },
    {
      "type": "node",
      "id": 2158524768,
      "lat": 34.6786324,
      "lon": 135.5671664,
      "tags": {
        "amenity": "restaurant",
        "cuisine": "curry",
        "name": "上等カレー"
      }
    },
    {
      "type": "node",
      "id": 2158525028,
      "lat": 34.679208,
      "lon": 135.579238,
      "tags": {
        "amenity": "restaurant",
        "name": "かに道楽"
      }
    },
    {
      "type": "node",
      "id": 2158530081,
      "lat": 34.679264,
      "lon": 135.582834,
      "tags": {
        "amenity": "restaurant",
        "cuisine": "ramen",
        "name": "横綱",
        "name:en": "Yokoduna",
        "note": "英語名はラーメン丼の表記による"
      }
    },
    {
      "type": "node",
      "id": 2163569227,
      "lat": 34.686087,
      "lon": 135.517067,
      "tags": {
        "amenity": "restaurant",
        "cuisine": "curry",
        "name": "上等カレー"
      }
    },
    {
      "type": "node",
      "id": 2179580812,
      "lat": 34.688393,
      "lon": 135.518162,
      "tags": {
        "amenity": "restaurant",
        "cuisine": "noodle",
        "name": "得正"
      }
    },
    {
      "type": "node",
      "id": 2180112418,
      "lat": 34.6883403,
      "lon": 135.5181711,
      "tags": {
        "amenity": "restaurant",
        "cuisine": "curry",
        "name": "上等カレー"
      }
    },
    {
      "type": "node",
      "id": 2181216856,
      "lat": 34.57658,
      "lon": 135.471429,
      "tags": {
        "addr:full": "大阪府堺市堺区大町西１−１−１",
        "amenity": "restaurant",
        "cuisine": "japanese",
        "delivery": "no",
        "name": "和食 さと 堺宿院店",
        "outdoor_seating": "no",
        "phone": "072-232-3611",
        "smoking": "separated",
        "takeaway": "no",
        "takeaway:covid19": "yes"
      }
    },
    {
      "type": "node",
      "id": 2192183390,
      "lat": 34.6628942,
      "lon": 135.5062005,
      "tags": {
        "amenity": "restaurant",
        "cuisine": "japanese",
        "name": "東京チカラめし",
        "name:ja": "東京チカラめし",
        "source": "Survey"
      }
    },
    {
      "type": "node",
      "id": 2209597529,
      "lat": 34.685064,
      "lon": 135.508264,
      "tags": {
        "amenity": "restaurant",
        "cuisine": "chinese",
        "name": "晴華",
        "name:en": "Haruka",
        "name:ja": "晴華"
      }
    },
    {
      "type": "node",
      "id": 2246263677,
      "lat": 34.6674166,
      "lon": 135.5032478,
      "tags": {
        "amenity": "restaurant",
        "cuisine": "korean",
        "name": "鶴橋アジヨシ"
      }
    },
    {
      "type": "node",
      "id": 2247395909,
      "lat": 34.6586553,
      "lon": 135.4559162,
      "tags": {
        "amenity": "restaurant",
        "name": "レストラン セードル",
        "source": "survey"
      }
    },
    {
      "type": "node",
      "id": 2274759218,
      "lat": 34.581897,
      "lon": 135.469904,
      "tags": {
        "addr:province": "Osaka",
        "amenity": "restaurant",
        "cuisine": "ramen",
        "delivery": "no",
        "name": "ラーメン横綱　プラットプラット店",
        "opening_hours": "11:00-22:00",
        "takeaway": "no"
      }
    },
    {
      "type": "node",
      "id": 2274759474,
      "lat": 34.582017,
      "lon": 135.469408,
      "tags": {
        "amenity": "restaurant",
        "cuisine": "japanese",
        "delivery": "no",
        "name": "えびす屋"
      }
    },
    {
      "type": "node",
      "id": 2275165138,
      "lat": 34.580303,
      "lon": 135.467322,
      "tags": {
        "amenity": "restaurant",
        "cuisine": "japanese",
        "name": "焼肉 仔牛亭",
        "outdoor_seating": "no"
      }
    },
    {
      "type": "node",
      "id": 2275172726,
      "lat": 34.5805727,
      "lon": 135.4680029,
      "tags": {
        "amenity": "restaurant",
        "cuisine": "italian",
        "name": "Pasta mania",
        "outdoor_seating": "no"
      }
    },
    {
      "type": "node",
      "id": 2275176905,
      "lat": 34.580325,
      "lon": 135.467971,
      "tags": {
        "amenity": "restaurant",
        "cuisine": "japanese",
        "name": "たか陣",
        "outdoor_seating": "no",
        "takeaway": "no"
      }
    },
    {
      "type": "node",
      "id": 2275178508,
      "lat": 34.581019,
      "lon": 135.468416,
      "tags": {
        "amenity": "restaurant",
        "cuisine": "indian",
        "name": "デビ",
        "outdoor_seating": "no",
        "takeaway": "yes"
      }
    },
    {
      "type": "node",
      "id": 2276775322,
      "lat": 34.66535,
      "lon": 135.502243,
      "tags": {
        "amenity": "restaurant",
        "brand": "餃子の王将",
        "brand:en": "Gyoza no Ohsho",
        "brand:ja": "餃子の王将",
        "brand:wikidata": "Q11666805",
        "brand:wikipedia": "en:Gyoza no Ohsho",
        "cuisine": "chinese;gyoza",
        "name": "餃子の王将",
        "name:en": "Gyoza no Ohsho",
        "name:ja": "餃子の王将",
        "name:ja_rm": "Gyoza No Ohsho",
        "name:zh": "饺子的王将",
        "wheelchair": "no"
      }
    },
    {
      "type": "node",
      "id": 2276777402,
      "lat": 34.665365,
      "lon": 135.502586,
      "tags": {
        "amenity": "restaurant",
        "cuisine": "sushi",
        "name": "がんこ寿司",
        "outdoor_seating": "no",
        "takeaway": "yes"
      }
    },
    {
      "type": "node",
      "id": 2278969802,
      "lat": 34.690126,
      "lon": 135.546615,
      "tags": {
        "amenity": "restaurant",
        "cuisine": "sushi",
        "name": "みたや寿司"
      }
    },
    {
      "type": "node",
      "id": 2278970202,
      "lat": 34.689857,
      "lon": 135.547412,
      "tags": {
        "amenity": "restaurant",
        "cuisine": "sushi",
        "name": "水加美",
        "name:ja": "水加美",
        "name:zh": "水加美"
      }
    },
    {
      "type": "node",
      "id": 2278970294,
      "lat": 34.689707,
      "lon": 135.547664,
      "tags": {
        "amenity": "restaurant",
        "name": "みつはし",
        "name:ja": "みつはし",
        "name:zh": "三桥餐馆"
      }
    },
    {
      "type": "node",
      "id": 2282101709,
      "lat": 34.4814897,
      "lon": 135.546792,
      "tags": {
        "amenity": "restaurant",
        "name": "ちゃんこ 大いちょう",
        "source": "survey"
      }
    },
    {
      "type": "node",
      "id": 2282101711,
      "lat": 34.4782779,
      "lon": 135.5483867,
      "tags": {
        "amenity": "restaurant",
        "name": "とんかつ鶴亀",
        "source": "survey"
      }
    },
    {
      "type": "node",
      "id": 2282637548,
      "lat": 34.6810973,
      "lon": 135.5465681,
      "tags": {
        "amenity": "restaurant",
        "name": "ちゃあむ"
      }
    },
    {
      "type": "node",
      "id": 2282648207,
      "lat": 34.682469,
      "lon": 135.54962,
      "tags": {
        "amenity": "restaurant",
        "name": "あづま",
        "name:ja": "あづま",
        "name:zh": "小吃部"
      }
    },
    {
      "type": "node",
      "id": 2283872265,
      "lat": 34.566605,
      "lon": 135.456034,
      "tags": {
        "amenity": "restaurant",
        "name": "めしや食堂堺出島店",
        "name:en": "Meshiya Shokudo",
        "opening_hours": "PH,Mo-Su 11:00-23:00",
        "takeaway:covid19": "yes"
      }
    },
    {
      "type": "node",
      "id": 2284296509,
      "lat": 34.4804759,
      "lon": 135.5473719,
      "tags": {
        "amenity": "restaurant",
        "name": "フランス料理 トルデュ",
        "source": "survey"
      }
    },
    {
      "type": "node",
      "id": 2287861752,
      "lat": 34.6667786,
      "lon": 135.5035016,
      "tags": {
        "addr:block_number": "9",
        "addr:city": "大阪市",
        "addr:country": "JP",
        "addr:housename": "アムザ1000",
        "addr:housenumber": "17",
        "addr:neighbourhood": "2",
        "addr:province": "大阪府",
        "addr:quarter": "千日前",
        "addr:suburb": "中央区",
        "amenity": "restaurant",
        "branch": "千日前アムザ",
        "brand": "サイゼリヤ",
        "brand:en": "Saizeriya",
        "contact:phone": "06-4397-6627",
        "contact:website": "https://www.saizeriya.co.jp/restaurant/shop_detail.php?cd=889",
        "cuisine": "italian",
        "level": "2",
        "name": "サイゼリヤ",
        "name:en": "Saizeriya",
        "name:ja": "サイゼリヤ",
        "name:ja_rm": "Saizeriya",
        "opening_hours": "11:00-05:00",
        "operator": "株式会社サイゼリヤ",
        "outdoor_seating": "no",
        "parking": "no",
        "shop_id": "889"
      }
    },
    {
      "type": "node",
      "id": 2290481442,
      "lat": 34.5809402,
      "lon": 135.4685278,
      "tags": {
        "amenity": "restaurant",
        "name": "かまん",
        "outdoor_seating": "no",
        "source": "survey"
      }
    },
    {
      "type": "node",
      "id": 2290481446,
      "lat": 34.5781574,
      "lon": 135.4729749,
      "tags": {
        "amenity": "restaurant",
        "name": "ラーメン ご○",
        "source": "survey"
      }
    },
    {
      "type": "node",
      "id": 2291170873,
      "lat": 34.6659135,
      "lon": 135.5063007,
      "tags": {
        "amenity": "restaurant",
        "cuisine": "fish",
        "name": "フグ料理大政"
      }
    },
    {
      "type": "node",
      "id": 2293057664,
      "lat": 34.6849135,
      "lon": 135.4990086,
      "tags": {
        "amenity": "restaurant",
        "cuisine": "noodle",
        "name": "美々卯",
        "name:en": "Mimiu"
      }
    },
    {
      "type": "node",
      "id": 2293323583,
      "lat": 34.6821958,
      "lon": 135.5116508,
      "tags": {
        "amenity": "restaurant",
        "name": "ラーメン魂",
        "source": "Bing"
      }
    },
    {
      "type": "node",
      "id": 2293335904,
      "lat": 34.6673433,
      "lon": 135.5161769,
      "tags": {
        "amenity": "restaurant",
        "brand": "めしや 宮本むなし",
        "name": "宮本むなし",
        "name:en": "Miyamoto Munashi",
        "name:ja": "宮本むなし",
        "name:ja_rm": "Miyamoto Munashi"
      }
    },
    {
      "type": "node",
      "id": 2293447280,
      "lat": 34.6593832,
      "lon": 135.5044798,
      "tags": {
        "amenity": "restaurant",
        "name": "一真道",
        "name:en": "Isshin-do",
        "source": "Bing"
      }
    },
    {
      "type": "node",
      "id": 2293447285,
      "lat": 34.6576663,
      "lon": 135.505935,
      "tags": {
        "amenity": "restaurant",
        "brand": "つるまる",
        "cuisine": "udon",
        "name": "つるまるうどん",
        "name:en": "Tsurumaru",
        "name:ja": "つるまる",
        "name:ja_rm": "Tsurumaru",
        "source": "survey"
      }
    },
    {
      "type": "node",
      "id": 2293447288,
      "lat": 34.6630664,
      "lon": 135.5033163,
      "tags": {
        "amenity": "restaurant",
        "name": "とんかつ がんこ",
        "name:en": "Ganko Tonkatsu"
      }
    },
    {
      "type": "node",
      "id": 2293447293,
      "lat": 34.6582518,
      "lon": 135.5055497,
      "tags": {
        "amenity": "restaurant",
        "name": "らーめん喜六"
      }
    },
    {
      "type": "node",
      "id": 2293447423,
      "lat": 34.660532,
      "lon": 135.505724,
      "tags": {
        "amenity": "restaurant",
        "name": "極厚焼豚らーめん",
        "name:en": "Ramen",
        "source": "Bing;survey"
      }
    },
    {
      "type": "node",
      "id": 2293447497,
      "lat": 34.6615611,
      "lon": 135.5050064,
      "tags": {
        "amenity": "restaurant",
        "name": "海老丸本舗",
        "name:en": "Ebimaru Honpo"
      }
    },
    {
      "type": "node",
      "id": 2293447500,
      "lat": 34.6601318,
      "lon": 135.5060372,
      "tags": {
        "amenity": "restaurant",
        "name": "福島上等カレー",
        "name:en": "Fukushima Joto Curry"
      }
    },
    {
      "type": "node",
      "id": 2293447501,
      "lat": 34.6639729,
      "lon": 135.5058633,
      "tags": {
        "amenity": "restaurant",
        "name": "福来亭",
        "name:en": "fu-rai tei"
      }
    },
    {
      "type": "node",
      "id": 2293447502,
      "lat": 34.6649533,
      "lon": 135.5058958,
      "tags": {
        "amenity": "restaurant",
        "name": "萬牛"
      }
    },
    {
      "type": "node",
      "id": 2293447516,
      "lat": 34.6604564,
      "lon": 135.5060453,
      "tags": {
        "amenity": "restaurant",
        "brand": "餃子の王将",
        "brand:en": "Gyoza no Ohsho",
        "brand:ja": "餃子の王将",
        "brand:wikidata": "Q11666805",
        "brand:wikipedia": "en:Gyoza no Ohsho",
        "cuisine": "chinese;gyoza",
        "name": "餃子の王将",
        "name:en": "Gyoza no Ohsho",
        "name:ja": "餃子の王将",
        "name:ja_rm": "Gyoza No Ohsho",
        "source": "Bing;survey"
      }
    },
    {
      "type": "node",
      "id": 2293447519,
      "lat": 34.6624618,
      "lon": 135.5048895,
      "tags": {
        "amenity": "restaurant",
        "name": "魂心家"
      }
    },
    {
      "type": "node",
      "id": 2293545331,
      "lat": 34.6775398,
      "lon": 135.5169004,
      "tags": {
        "amenity": "restaurant",
        "name": "とん八",
        "source": "Bing"
      }
    },
    {
      "type": "node",
      "id": 2293545333,
      "lat": 34.6713281,
      "lon": 135.5163733,
      "tags": {
        "amenity": "restaurant",
        "cuisine": "indian",
        "name": "ケサリ"
      }
    },
    {
      "type": "node",
      "id": 2293545384,
      "lat": 34.6683044,
      "lon": 135.5158165,
      "tags": {
        "amenity": "restaurant",
        "cuisine": "german",
        "name": "ハンブルグ",
        "source": "Bing"
      }
    },
    {
      "type": "node",
      "id": 2293545388,
      "lat": 34.6781292,
      "lon": 135.5169165,
      "tags": {
        "amenity": "restaurant",
        "name": "バール エノテカ",
        "name:it": "bar enoteca"
      }
    },
    {
      "type": "node",
      "id": 2293545394,
      "lat": 34.6746917,
      "lon": 135.5167088,
      "tags": {
        "amenity": "restaurant",
        "name": "愛宕屋",
        "name:ja_rm": "Atagoya",
        "source": "Bing"
      }
    },
    {
      "type": "node",
      "id": 2293545396,
      "lat": 34.6671048,
      "lon": 135.5105058,
      "tags": {
        "amenity": "restaurant",
        "name": "有八らーめん",
        "source": "Bing"
      }
    },
    {
      "type": "node",
      "id": 2293545398,
      "lat": 34.6773486,
      "lon": 135.5168502,
      "tags": {
        "amenity": "restaurant",
        "name": "福島上等カレー",
        "source": "Bing"
      }
    },
    {
      "type": "node",
      "id": 2293545401,
      "lat": 34.6671175,
      "lon": 135.5102353,
      "tags": {
        "amenity": "restaurant",
        "name": "麺や 天啓",
        "source": "Bing"
      }
    },
    {
      "type": "node",
      "id": 2294179102,
      "lat": 34.6653759,
      "lon": 135.5039442,
      "tags": {
        "amenity": "restaurant",
        "brand": "大阪王将",
        "brand:en": "Osaka Ohsho",
        "brand:ja": "大阪王将",
        "brand:wikidata": "Q48743717",
        "brand:wikipedia": "ja:大阪王将",
        "cuisine": "japanese;chinese",
        "name": "大阪王将",
        "name:en": "Osaka Ohsho",
        "name:ja": "大阪王将",
        "name:ja_rm": "Osaka Ohsho"
      }
    },
    {
      "type": "node",
      "id": 2294253415,
      "lat": 34.663246,
      "lon": 135.502134,
      "tags": {
        "amenity": "restaurant",
        "cuisine": "fish",
        "name": "大起水産"
      }
    },
    {
      "type": "node",
      "id": 2294503236,
      "lat": 34.662728,
      "lon": 135.500947,
      "tags": {
        "amenity": "restaurant",
        "brand": "天下一品",
        "brand:en": "Tenkaippin",
        "brand:wikidata": "Q11442172",
        "brand:wikipedia": "en:Tenkaippin",
        "cuisine": "ramen",
        "name": "天下一品",
        "name:en": "Tenkaippin",
        "source": "survey"
      }
    },
    {
      "type": "node",
      "id": 2294507436,
      "lat": 34.6622143,
      "lon": 135.500539,
      "tags": {
        "amenity": "restaurant",
        "brand": "餃子の王将",
        "brand:en": "Gyoza no Ohsho",
        "brand:ja": "餃子の王将",
        "brand:wikidata": "Q11666805",
        "brand:wikipedia": "en:Gyoza no Ohsho",
        "cuisine": "chinese;gyoza",
        "name": "餃子の王将",
        "name:en": "Gyoza no Ohsho",
        "name:ja": "餃子の王将",
        "name:ja_rm": "Gyoza No Ohsho",
        "source": "survey",
        "wheelchair": "no"
      }
    },
    {
      "type": "node",
      "id": 2294510324,
      "lat": 34.662258,
      "lon": 135.500764,
      "tags": {
        "amenity": "restaurant",
        "name": "お食事処おくむら",
        "source": "survey"
      }
    },
    {
      "type": "node",
      "id": 2294512459,
      "lat": 34.662479,
      "lon": 135.499772,
      "tags": {
        "amenity": "restaurant",
        "cuisine": "chinese",
        "name": "中華料理大福",
        "name:zh": "中华料理大福"
      }
    },
    {
      "type": "node",
      "id": 2294521103,
      "lat": 34.661757,
      "lon": 135.498654,
      "tags": {
        "amenity": "restaurant",
        "cuisine": "korean",
        "name": "宮",
        "source": "survey"
      }
    },
    {
      "type": "node",
      "id": 2294522268,
      "lat": 34.661443,
      "lon": 135.498715,
      "tags": {
        "amenity": "restaurant",
        "cuisine": "sushi",
        "name": "たちばな",
        "name:zh": "柑橘",
        "source": "survey"
      }
    },
    {
      "type": "node",
      "id": 2294528788,
      "lat": 34.6608442,
      "lon": 135.4975578,
      "tags": {
        "amenity": "restaurant",
        "brand": "やよい軒",
        "brand:en": "Yayoiken",
        "brand:ja": "やよい軒",
        "brand:wikidata": "Q11280577",
        "brand:wikipedia": "ja:やよい軒",
        "cuisine": "japanese",
        "name": "やよい軒",
        "name:en": "Yayoiken",
        "name:ja": "やよい軒",
        "name:ja_rm": "Yayoiken",
        "source": "survey"
      }
    },
    {
      "type": "node",
      "id": 2294530586,
      "lat": 34.6607616,
      "lon": 135.4975396,
      "tags": {
        "amenity": "restaurant",
        "name": "お食事処どうも",
        "source": "survey"
      }
    },
    {
      "type": "node",
      "id": 2294538700,
      "lat": 34.6629311,
      "lon": 135.4976203,
      "tags": {
        "amenity": "restaurant",
        "name": "元町食堂",
        "name:zh": "元町食堂",
        "source": "survey"
      }
    },
    {
      "type": "node",
      "id": 2294580351,
      "lat": 34.6654187,
      "lon": 135.5040801,
      "tags": {
        "amenity": "restaurant",
        "name": "焼肉ホルモン宝",
        "name:ko": "야키니쿠 호르몬 타카라"
      }
    },
    {
      "type": "node",
      "id": 2294588721,
      "lat": 34.665802,
      "lon": 135.506283,
      "tags": {
        "amenity": "restaurant",
        "name": "ふぐ青柳",
        "name:en": "Fugu Aoyanagi"
      }
    },
    {
      "type": "node",
      "id": 2294589246,
      "lat": 34.6673296,
      "lon": 135.5062994,
      "tags": {
        "addr:block_number": "5",
        "addr:city": "大阪市",
        "addr:country": "JP",
        "addr:housename": "ｼﾞｮﾘｰ・ﾌﾟﾚﾘｰ日本橋ﾋﾞﾙ",
        "addr:housenumber": "10",
        "addr:neighbourhood": "1",
        "addr:province": "大阪府",
        "addr:quarter": "日本橋",
        "addr:suburb": "中央区",
        "amenity": "restaurant",
        "branch": "大阪日本橋駅前",
        "brand": "サイゼリヤ",
        "brand:en": "Saizeriya",
        "brand:ja": "サイゼリヤ",
        "brand:wikidata": "Q886564",
        "brand:wikipedia": "en:Saizeriya",
        "cuisine": "italian",
        "level": "1",
        "name": "サイゼリヤ",
        "name:en": "Saizeriya",
        "name:ja": "サイゼリヤ",
        "name:ja_rm": "Saizeriya",
        "opening_hours": "11:00-02:00",
        "operator": "株式会社サイゼリヤ",
        "parking": "no",
        "phone": "06-6214-2171",
        "shop_id": "1131",
        "website": "https://www.saizeriya.co.jp/restaurant/shop_detail.php?cd=1131",
        "wheelchair": "limited"
      }
    },
    {
      "type": "node",
      "id": 2295417475,
      "lat": 34.679193,
      "lon": 135.58315,
      "tags": {
        "amenity": "restaurant",
        "name": "牛庵"
      }
    },
    {
      "type": "node",
      "id": 2295422379,
      "lat": 34.6702745,
      "lon": 135.6094922,
      "tags": {
        "amenity": "restaurant",
        "brand": "Royal Host",
        "name": "ロイヤルホスト",
        "name:en": "Royal Host",
        "name:ja": "ロイヤルホスト",
        "name:ja_rm": "Roiyaruhosuto"
      }
    },
    {
      "type": "node",
      "id": 2296559741,
      "lat": 34.664289,
      "lon": 135.502957,
      "tags": {
        "amenity": "restaurant",
        "name": "しゃぶ亭",
        "name:en": "Shabutei"
      }
    },
    {
      "type": "node",
      "id": 2296862273,
      "lat": 34.6628985,
      "lon": 135.503194,
      "tags": {
        "amenity": "restaurant",
        "cuisine": "italian",
        "name": "ポポラマーマ",
        "name:en": "Popo La Mama"
      }
    },
    {
      "type": "node",
      "id": 2296879588,
      "lat": 34.6642993,
      "lon": 135.5041115,
      "tags": {
        "amenity": "restaurant",
        "name": "あじと",
        "name:en": "Ajito"
      }
    },
    {
      "type": "node",
      "id": 2296882131,
      "lat": 34.664621,
      "lon": 135.503933,
      "tags": {
        "amenity": "restaurant",
        "name": "洋食屋カトリーナ",
        "name:en": "Katrina",
        "name:ko": "카트리나"
      }
    },
    {
      "type": "node",
      "id": 2296895533,
      "lat": 34.6660992,
      "lon": 135.504308,
      "tags": {
        "amenity": "restaurant",
        "name": "鳥よし本店"
      }
    },
    {
      "type": "node",
      "id": 2296898706,
      "lat": 34.6661786,
      "lon": 135.5043348,
      "tags": {
        "amenity": "restaurant",
        "name": "大政"
      }
    },
    {
      "type": "node",
      "id": 2296898952,
      "lat": 34.666601,
      "lon": 135.504291,
      "tags": {
        "amenity": "restaurant",
        "name": "焼肉櫻"
      }
    },
    {
      "type": "node",
      "id": 2296900096,
      "lat": 34.666797,
      "lon": 135.504407,
      "tags": {
        "amenity": "restaurant",
        "name": "昭和ホルモン"
      }
    },
    {
      "type": "node",
      "id": 2296904021,
      "lat": 34.667697,
      "lon": 135.504369,
      "tags": {
        "amenity": "restaurant",
        "name": "炭火焼肉肉八"
      }
    },
    {
      "type": "node",
      "id": 2296907223,
      "lat": 34.667904,
      "lon": 135.504632,
      "tags": {
        "amenity": "restaurant",
        "name": "ふぐくじら"
      }
    },
    {
      "type": "node",
      "id": 2296907381,
      "lat": 34.6679003,
      "lon": 135.5048925,
      "tags": {
        "amenity": "restaurant",
        "name": "味宝楼"
      }
    },
    {
      "type": "node",
      "id": 2296910393,
      "lat": 34.667515,
      "lon": 135.506311,
      "tags": {
        "amenity": "restaurant",
        "brand": "めしや 宮本むなし",
        "name": "宮本むなし",
        "name:en": "Miyamoto Munashi",
        "name:ja": "宮本むなし",
        "name:ja_rm": "Miyamoto Munashi"
      }
    },
    {
      "type": "node",
      "id": 2297793905,
      "lat": 34.6613392,
      "lon": 135.5021077,
      "tags": {
        "amenity": "restaurant",
        "level": "6",
        "name": "うおまん",
        "wheelchair": "yes"
      }
    },
    {
      "type": "node",
      "id": 2298263229,
      "lat": 34.663663,
      "lon": 135.505225,
      "tags": {
        "amenity": "restaurant",
        "name": "縁"
      }
    },
    {
      "type": "node",
      "id": 2298263392,
      "lat": 34.663767,
      "lon": 135.50521,
      "tags": {
        "amenity": "restaurant",
        "name": "おり"
      }
    },
    {
      "type": "node",
      "id": 2298265984,
      "lat": 34.664411,
      "lon": 135.505549,
      "tags": {
        "amenity": "restaurant",
        "name": "ピンツォクワルト"
      }
    },
    {
      "type": "node",
      "id": 2298275320,
      "lat": 34.666079,
      "lon": 135.505269,
      "tags": {
        "amenity": "restaurant",
        "cuisine": "italian",
        "name": "caffurio"
      }
    },
    {
      "type": "node",
      "id": 2298278281,
      "lat": 34.6666356,
      "lon": 135.5055038,
      "tags": {
        "amenity": "restaurant",
        "name": "壺心"
      }
    },
    {
      "type": "node",
      "id": 2302378415,
      "lat": 34.6663637,
      "lon": 135.5028823,
      "tags": {
        "amenity": "restaurant",
        "cuisine": "定食",
        "name": "街かど屋 千日前店（ザめしや24）",
        "smoking": "no"
      }
    },
    {
      "type": "node",
      "id": 2303167862,
      "lat": 34.666232,
      "lon": 135.504938,
      "tags": {
        "amenity": "restaurant",
        "name": "焼肉五苑"
      }
    },
    {
      "type": "node",
      "id": 2303171175,
      "lat": 34.666309,
      "lon": 135.502313,
      "tags": {
        "amenity": "restaurant",
        "name": "回転すし日本一",
        "name:zh": "日本第一回转寿司"
      }
    },
    {
      "type": "node",
      "id": 2303714500,
      "lat": 34.665453,
      "lon": 135.502264,
      "tags": {
        "amenity": "restaurant",
        "name": "治兵衛"
      }
    },
    {
      "type": "node",
      "id": 2303715292,
      "lat": 34.665894,
      "lon": 135.502241,
      "tags": {
        "amenity": "restaurant",
        "name": "焼肉一丁"
      }
    },
    {
      "type": "node",
      "id": 2303716232,
      "lat": 34.665998,
      "lon": 135.502232,
      "tags": {
        "amenity": "restaurant",
        "name": "岩崎塾"
      }
    },
    {
      "type": "node",
      "id": 2303719387,
      "lat": 34.666058,
      "lon": 135.502218,
      "tags": {
        "amenity": "restaurant",
        "cuisine": "japanese",
        "level": "0;1",
        "name": "三間堂",
        "wheelchair": "no"
      }
    },
    {
      "type": "node",
      "id": 2310505939,
      "lat": 34.619141,
      "lon": 135.574022,
      "tags": {
        "amenity": "restaurant",
        "brand": "はなまる",
        "cuisine": "noodle",
        "name": "はなまるうどん",
        "name:en": "HANAMARU",
        "name:ja": "はなまるうどん",
        "name:ja_rm": "Hanamaru Udon"
      }
    },
    {
      "type": "node",
      "id": 2310549533,
      "lat": 34.688944,
      "lon": 135.506396,
      "tags": {
        "amenity": "restaurant",
        "level": "0",
        "name": "北浜食堂"
      }
    },
    {
      "type": "node",
      "id": 2310552355,
      "lat": 34.68827,
      "lon": 135.507345,
      "tags": {
        "amenity": "restaurant",
        "brand": "餃子の王将",
        "brand:en": "Gyoza no Ohsho",
        "brand:ja": "餃子の王将",
        "brand:wikidata": "Q11666805",
        "brand:wikipedia": "en:Gyoza no Ohsho",
        "cuisine": "chinese;gyoza",
        "name": "餃子の王将",
        "name:en": "Gyoza no Ohsho",
        "name:ja": "餃子の王将",
        "name:ja_rm": "Gyoza No Ohsho"
      }
    },
    {
      "type": "node",
      "id": 2310552624,
      "lat": 34.688264,
      "lon": 135.507977,
      "tags": {
        "amenity": "restaurant",
        "name": "ラ グリシーヌ"
      }
    },
    {
      "type": "node",
      "id": 2310553253,
      "lat": 34.689781,
      "lon": 135.508093,
      "tags": {
        "amenity": "restaurant",
        "name": "北京飯店"
      }
    },
    {
      "type": "node",
      "id": 2310553355,
      "lat": 34.689838,
      "lon": 135.507731,
      "tags": {
        "amenity": "restaurant",
        "cuisine": "japanese",
        "name": "あらか"
      }
    },
    {
      "type": "node",
      "id": 2310554334,
      "lat": 34.690139,
      "lon": 135.507042,
      "tags": {
        "amenity": "restaurant",
        "name": "軍鶏十番"
      }
    },
    {
      "type": "node",
      "id": 2312782092,
      "lat": 34.665785,
      "lon": 135.501238,
      "tags": {
        "amenity": "restaurant",
        "brand": "千房",
        "name": "千房",
        "name:en": "CHIBO",
        "name:ja": "千房",
        "name:ja_rm": "Chibo"
      }
    },
    {
      "type": "node",
      "id": 2312785096,
      "lat": 34.666765,
      "lon": 135.501266,
      "tags": {
        "amenity": "restaurant",
        "brand": "ガスト",
        "brand:en": "Gusto",
        "brand:ja": "ガスト",
        "brand:wikidata": "Q87724117",
        "cuisine": "western;japanese",
        "name": "ガスト",
        "name:en": "Gusto",
        "name:ja": "ガスト",
        "name:ja_rm": "Gasuto",
        "name:ko": "구스토"
      }
    },
    {
      "type": "node",
      "id": 2312793938,
      "lat": 34.66654,
      "lon": 135.501083,
      "tags": {
        "amenity": "restaurant",
        "name": "おざわ"
      }
    },
    {
      "type": "node",
      "id": 2312807384,
      "lat": 34.666867,
      "lon": 135.501147,
      "tags": {
        "amenity": "restaurant",
        "name": "ひゃくばん"
      }
    },
    {
      "type": "node",
      "id": 2312807845,
      "lat": 34.666856,
      "lon": 135.501477,
      "tags": {
        "amenity": "restaurant",
        "name": "コッテジ"
      }
    },
    {
      "type": "node",
      "id": 2312808923,
      "lat": 34.667506,
      "lon": 135.501143,
      "tags": {
        "amenity": "restaurant",
        "branch": "戎橋店",
        "brand": "餃子の王将",
        "brand:en": "Gyoza no Ohsho",
        "brand:ja": "餃子の王将",
        "brand:wikidata": "Q11666805",
        "brand:wikipedia": "en:Gyoza no Ohsho",
        "cuisine": "chinese;gyoza",
        "level": "0;1",
        "name": "餃子の王将",
        "name:en": "Gyoza no Ohsho",
        "name:ja": "餃子の王将",
        "name:ja_rm": "Gyoza No Ohsho",
        "opening_hours": "24/7",
        "phone": "+81-6-6213-6626"
      }
    },
    {
      "type": "node",
      "id": 2312825237,
      "lat": 34.667708,
      "lon": 135.50183,
      "tags": {
        "amenity": "restaurant",
        "name": "フェローズ"
      }
    },
    {
      "type": "node",
      "id": 2312830933,
      "lat": 34.667751,
      "lon": 135.501996,
      "tags": {
        "amenity": "restaurant",
        "name": "ひろの一本釣り"
      }
    },
    {
      "type": "node",
      "id": 2312835780,
      "lat": 34.667934,
      "lon": 135.502144,
      "tags": {
        "amenity": "restaurant",
        "name": "新世界いっとく"
      }
    },
    {
      "type": "node",
      "id": 2312836108,
      "lat": 34.667785,
      "lon": 135.502398,
      "tags": {
        "amenity": "restaurant",
        "name": "夫婦善哉",
        "name:en": "Meoto Zenzai",
        "name:zh": "夫婦善哉 池波正太郎紅豆湯",
        "opening_hours": "Mo-Su 10:00-22:00",
        "phone": "+81 6-6211-6455",
        "website": "https://sato-res.com/store/0662116455"
      }
    },
    {
      "type": "node",
      "id": 2312837460,
      "lat": 34.667839,
      "lon": 135.50309,
      "tags": {
        "amenity": "restaurant",
        "name": "がんこ寿司"
      }
    },
    {
      "type": "node",
      "id": 2312838593,
      "lat": 34.667777,
      "lon": 135.503243,
      "tags": {
        "amenity": "restaurant",
        "name": "市場ずし"
      }
    },
    {
      "type": "node",
      "id": 2312840681,
      "lat": 34.667725,
      "lon": 135.503469,
      "tags": {
        "amenity": "restaurant",
        "cuisine": "pasta",
        "name": "パステリア バンブ"
      }
    },
    {
      "type": "node",
      "id": 2313729677,
      "lat": 34.6656558,
      "lon": 135.5031391,
      "tags": {
        "amenity": "restaurant",
        "brand": "鶴橋風月",
        "name": "鶴橋風月",
        "name:en": "FUGETSU",
        "name:ja": "鶴橋風月",
        "name:ja_rm": "Tsuruhashi Fugetsu"
      }
    },
    {
      "type": "node",
      "id": 2315702807,
      "lat": 34.6652278,
      "lon": 135.4990653,
      "tags": {
        "amenity": "restaurant",
        "name": "山賊"
      }
    },
    {
      "type": "node",
      "id": 2315707495,
      "lat": 34.665189,
      "lon": 135.498914,
      "tags": {
        "amenity": "restaurant",
        "name": "つぼ"
      }
    },
    {
      "type": "node",
      "id": 2315709225,
      "lat": 34.665312,
      "lon": 135.49862,
      "tags": {
        "amenity": "restaurant",
        "name": "とり一番本舗",
        "name:zh": "鸡肉最棒本店"
      }
    },
    {
      "type": "node",
      "id": 2315712951,
      "lat": 34.666162,
      "lon": 135.498485,
      "tags": {
        "amenity": "restaurant",
        "cuisine": "chinese",
        "name": "一心亭"
      }
    },
    {
      "type": "node",
      "id": 2315713046,
      "lat": 34.666187,
      "lon": 135.498955,
      "tags": {
        "amenity": "restaurant",
        "name": "楽楽座"
      }
    },
    {
      "type": "node",
      "id": 2315713190,
      "lat": 34.666235,
      "lon": 135.498933,
      "tags": {
        "amenity": "restaurant",
        "name": "たかせ"
      }
    },
    {
      "type": "node",
      "id": 2315713546,
      "lat": 34.666203,
      "lon": 135.499112,
      "tags": {
        "amenity": "restaurant",
        "name": "たまき"
      }
    },
    {
      "type": "node",
      "id": 2315713909,
      "lat": 34.666072,
      "lon": 135.499297,
      "tags": {
        "amenity": "restaurant",
        "name": "ニ楽"
      }
    },
    {
      "type": "node",
      "id": 2315716827,
      "lat": 34.66634,
      "lon": 135.499516,
      "tags": {
        "amenity": "restaurant",
        "cuisine": "chinese",
        "name": "中央軒"
      }
    },
    {
      "type": "node",
      "id": 2315717551,
      "lat": 34.666272,
      "lon": 135.499354,
      "tags": {
        "amenity": "restaurant",
        "name": "えんや"
      }
    },
    {
      "type": "node",
      "id": 2315719008,
      "lat": 34.666116,
      "lon": 135.499641,
      "tags": {
        "amenity": "restaurant",
        "name": "kyonkyon"
      }
    },
    {
      "type": "node",
      "id": 2315719514,
      "lat": 34.666226,
      "lon": 135.499702,
      "tags": {
        "amenity": "restaurant",
        "name": "七福"
      }
    },
    {
      "type": "node",
      "id": 2315719558,
      "lat": 34.666235,
      "lon": 135.499745,
      "tags": {
        "amenity": "restaurant",
        "name": "つけ麺球児"
      }
    },
    {
      "type": "node",
      "id": 2315720258,
      "lat": 34.6662576,
      "lon": 135.4998183,
      "tags": {
        "amenity": "restaurant",
        "name": "ささき"
      }
    },
    {
      "type": "node",
      "id": 2315723827,
      "lat": 34.666194,
      "lon": 135.500795,
      "tags": {
        "amenity": "restaurant",
        "name": "ぼてじゅう"
      }
    },
    {
      "type": "node",
      "id": 2315729139,
      "lat": 34.666224,
      "lon": 135.501026,
      "tags": {
        "amenity": "restaurant",
        "name": "串皇"
      }
    },
    {
      "type": "node",
      "id": 2315734407,
      "lat": 34.666427,
      "lon": 135.501622,
      "tags": {
        "amenity": "restaurant",
        "name": "まこ家"
      }
    },
    {
      "type": "node",
      "id": 2315735733,
      "lat": 34.6664779,
      "lon": 135.5020368,
      "tags": {
        "amenity": "restaurant",
        "level": "1",
        "name": "南一園"
      }
    },
    {
      "type": "node",
      "id": 2316669455,
      "lat": 34.682508,
      "lon": 135.546395,
      "tags": {
        "amenity": "restaurant",
        "cuisine": "sushi",
        "name": "美和すし",
        "name:ja": "美和すし",
        "name:zh": "美和寿司"
      }
    },
    {
      "type": "node",
      "id": 2317008145,
      "lat": 34.6634753,
      "lon": 135.50055,
      "tags": {
        "amenity": "restaurant",
        "brand": "Pepper Lunch",
        "brand:wikidata": "Q1016072",
        "brand:wikipedia": "en:Pepper Lunch",
        "cuisine": "steak",
        "name": "Pepper Lunch",
        "name:en": "Pepper Lunch"
      }
    },
    {
      "type": "node",
      "id": 2319248289,
      "lat": 34.682457,
      "lon": 135.500937,
      "tags": {
        "addr:city": "Osaka",
        "addr:street": "Midosuji",
        "amenity": "restaurant",
        "brand": "Hard Rock Cafe",
        "brand:wikidata": "Q918151",
        "brand:wikipedia": "en:Hard Rock Cafe",
        "cuisine": "american",
        "delivery": "no",
        "name": "Hard Rock Cafe",
        "outdoor_seating": "no",
        "source": "Survey",
        "takeaway": "no"
      }
    },
    {
      "type": "node",
      "id": 2320353946,
      "lat": 34.665305,
      "lon": 135.505353,
      "tags": {
        "amenity": "restaurant",
        "cuisine": "japanese",
        "name": "利八",
        "name:en": "Rihachi"
      }
    },
    {
      "type": "node",
      "id": 2320354653,
      "lat": 34.665367,
      "lon": 135.504598,
      "tags": {
        "amenity": "restaurant",
        "name": "新鮮ホルモン こいろり",
        "name:en": "Koirori"
      }
    },
    {
      "type": "node",
      "id": 2320354780,
      "lat": 34.665433,
      "lon": 135.504287,
      "tags": {
        "amenity": "restaurant",
        "name": "天秤棒",
        "name:en": "Tenbinbo"
      }
    },
    {
      "type": "node",
      "id": 2320358576,
      "lat": 34.664363,
      "lon": 135.503771,
      "tags": {
        "amenity": "restaurant",
        "cuisine": "noodle",
        "name": "三佳屋"
      }
    },
    {
      "type": "node",
      "id": 2320358966,
      "lat": 34.6638978,
      "lon": 135.5032316,
      "tags": {
        "amenity": "restaurant",
        "name": "MARIO",
        "name:ko": "카레우동"
      }
    },
    {
      "type": "node",
      "id": 2320359674,
      "lat": 34.6642732,
      "lon": 135.5035094,
      "tags": {
        "amenity": "restaurant",
        "name": "いわま"
      }
    },
    {
      "type": "node",
      "id": 2320361902,
      "lat": 34.66415,
      "lon": 135.502997,
      "tags": {
        "amenity": "restaurant",
        "cuisine": "asian",
        "name": "梁亜楼"
      }
    },
    {
      "type": "node",
      "id": 2320385489,
      "lat": 34.6634288,
      "lon": 135.5032721,
      "tags": {
        "amenity": "restaurant",
        "branch": "難波店",
        "cuisine": "japanese;okinawa_ryori",
        "name": "海援隊沖縄 肝どん",
        "name:en": "Kaientai Okinawa Chimudon",
        "name:ja-Hira": "かいえんたい おきなわ ちむどん"
      }
    },
    {
      "type": "node",
      "id": 2320386038,
      "lat": 34.663483,
      "lon": 135.503365,
      "tags": {
        "amenity": "restaurant",
        "name": "くしよし本舗",
        "name:en": "Kushiyoshi Hompo"
      }
    },
    {
      "type": "node",
      "id": 2320393320,
      "lat": 34.663445,
      "lon": 135.504744,
      "tags": {
        "amenity": "restaurant",
        "cuisine": "curry",
        "name": "アーリオオージオ"
      }
    },
    {
      "type": "node",
      "id": 2320394149,
      "lat": 34.663369,
      "lon": 135.504833,
      "tags": {
        "amenity": "restaurant",
        "cuisine": "chinese",
        "name": "けむり屋",
        "name:en": "Kemuriya"
      }
    },
    {
      "type": "node",
      "id": 2320402660,
      "lat": 34.663181,
      "lon": 135.506733,
      "tags": {
        "amenity": "restaurant",
        "name": "サロックながた"
      }
    },
    {
      "type": "node",
      "id": 2320403819,
      "lat": 34.663726,
      "lon": 135.506861,
      "tags": {
        "amenity": "restaurant",
        "name": "浪速屋"
      }
    },
    {
      "type": "node",
      "id": 2320406854,
      "lat": 34.663825,
      "lon": 135.507017,
      "tags": {
        "amenity": "restaurant",
        "cuisine": "curry",
        "name": "ニューダルニー"
      }
    },
    {
      "type": "node",
      "id": 2320412373,
      "lat": 34.664042,
      "lon": 135.506896,
      "tags": {
        "amenity": "restaurant",
        "name": "黒門豚美人"
      }
    },
    {
      "type": "node",
      "id": 2320412527,
      "lat": 34.66427,
      "lon": 135.506878,
      "tags": {
        "amenity": "restaurant",
        "name": "さくら"
      }
    },
    {
      "type": "node",
      "id": 2320412693,
      "lat": 34.66431,
      "lon": 135.506875,
      "tags": {
        "amenity": "restaurant",
        "cuisine": "sushi",
        "name": "やまと屋"
      }
    },
    {
      "type": "node",
      "id": 2320416782,
      "lat": 34.664789,
      "lon": 135.507175,
      "tags": {
        "amenity": "restaurant",
        "name": "焼肉神戸屋"
      }
    },
    {
      "type": "node",
      "id": 2320418915,
      "lat": 34.664863,
      "lon": 135.507092,
      "tags": {
        "amenity": "restaurant",
        "name": "黒門さぬき市場"
      }
    },
    {
      "type": "node",
      "id": 2320430380,
      "lat": 34.665512,
      "lon": 135.506878,
      "tags": {
        "amenity": "restaurant",
        "cuisine": "fish",
        "name": "浜藤"
      }
    },
    {
      "type": "node",
      "id": 2320433607,
      "lat": 34.665792,
      "lon": 135.506926,
      "tags": {
        "amenity": "restaurant",
        "name": "玄品ふぐ",
        "opening_hours": "Mo-Su 12:00-22:30",
        "phone": "0666342929"
      }
    },
    {
      "type": "node",
      "id": 2320443543,
      "lat": 34.666157,
      "lon": 135.507419,
      "tags": {
        "amenity": "restaurant",
        "name": "黒門寿司",
        "name:ko": "구로몬 시장"
      }
    },
    {
      "type": "node",
      "id": 2321859478,
      "lat": 34.665448,
      "lon": 135.49941,
      "tags": {
        "amenity": "restaurant",
        "name": "吉鳥"
      }
    },
    {
      "type": "node",
      "id": 2321859925,
      "lat": 34.665564,
      "lon": 135.499367,
      "tags": {
        "amenity": "restaurant",
        "name": "やきとり南蛮亭"
      }
    },
    {
      "type": "node",
      "id": 2326883004,
      "lat": 34.667508,
      "lon": 135.501065,
      "tags": {
        "amenity": "restaurant",
        "name": "晴屋"
      }
    },
    {
      "type": "node",
      "id": 2326897691,
      "lat": 34.668099,
      "lon": 135.501496,
      "tags": {
        "amenity": "restaurant",
        "brand": "天下一品",
        "brand:en": "Tenkaippin",
        "brand:wikidata": "Q11442172",
        "brand:wikipedia": "en:Tenkaippin",
        "cuisine": "ramen",
        "name": "天下一品",
        "name:en": "Tenkaippin",
        "name:ja": "天下一品",
        "name:ja_rm": "Tenka Ippin"
      }
    },
    {
      "type": "node",
      "id": 2326902971,
      "lat": 34.668043,
      "lon": 135.50175,
      "tags": {
        "amenity": "restaurant",
        "name": "割烹かわせ"
      }
    },
    {
      "type": "node",
      "id": 2326911192,
      "lat": 34.668085,
      "lon": 135.502075,
      "tags": {
        "amenity": "restaurant",
        "name": "割烹錦水"
      }
    },
    {
      "type": "node",
      "id": 2326917074,
      "lat": 34.668089,
      "lon": 135.502192,
      "tags": {
        "amenity": "restaurant",
        "name": "横綱"
      }
    },
    {
      "type": "node",
      "id": 2326940021,
      "lat": 34.6688037,
      "lon": 135.5019965,
      "tags": {
        "amenity": "restaurant",
        "brand": "大阪王将",
        "brand:en": "Osaka Ohsho",
        "brand:ja": "大阪王将",
        "brand:wikidata": "Q48743717",
        "brand:wikipedia": "ja:大阪王将",
        "cuisine": "japanese;chinese",
        "name": "大阪王将",
        "name:en": "Osaka Ohsho",
        "name:ja": "大阪王将",
        "name:ja_rm": "Osaka Ohsho"
      }
    },
    {
      "type": "node",
      "id": 2326942642,
      "lat": 34.668847,
      "lon": 135.50225,
      "tags": {
        "amenity": "restaurant",
        "name": "づぼらや",
        "name:en": "Kibouken Ramen"
      }
    },
    {
      "type": "node",
      "id": 2326947232,
      "lat": 34.6687886,
      "lon": 135.5026345,
      "tags": {
        "amenity": "restaurant",
        "name": "たよし"
      }
    },
    {
      "type": "node",
      "id": 2326949122,
      "lat": 34.668785,
      "lon": 135.502689,
      "tags": {
        "amenity": "restaurant",
        "name": "焼肉いろりや"
      }
    },
    {
      "type": "node",
      "id": 2326950078,
      "lat": 34.668829,
      "lon": 135.502552,
      "tags": {
        "amenity": "restaurant",
        "name": "廻る元禄寿司",
        "name:en": "廻る元禄寿司 Genroku sushi",
        "wheelchair": "limited"
      }
    },
    {
      "type": "node",
      "id": 2326956816,
      "lat": 34.6687924,
      "lon": 135.5031613,
      "tags": {
        "amenity": "restaurant",
        "name": "かに道楽",
        "name:en": "Kani Douraku",
        "name:zh": "蟹道樂"
      }
    },
    {
      "type": "node",
      "id": 2326966962,
      "lat": 34.668529,
      "lon": 135.503053,
      "tags": {
        "amenity": "restaurant",
        "name": "ぎふや"
      }
    },
    {
      "type": "node",
      "id": 2326973585,
      "lat": 34.6683351,
      "lon": 135.5032356,
      "tags": {
        "amenity": "restaurant",
        "name": "京ちゃばな"
      }
    },
    {
      "type": "node",
      "id": 2326975424,
      "lat": 34.668295,
      "lon": 135.503058,
      "tags": {
        "amenity": "restaurant",
        "brand": "丸亀製麺",
        "brand:en": "Marugame Seimen",
        "brand:ja": "丸亀製麺",
        "brand:wikidata": "Q10877253",
        "brand:wikipedia": "ja:丸亀製麺",
        "cuisine": "noodle",
        "name": "丸亀製麺",
        "name:en": "Marugame Seimen",
        "name:ja": "丸亀製麺"
      }
    },
    {
      "type": "node",
      "id": 2326975744,
      "lat": 34.668258,
      "lon": 135.503084,
      "tags": {
        "amenity": "restaurant",
        "name": "就章魚燒整隻的!!500日"
      }
    },
    {
      "type": "node",
      "id": 2326980340,
      "lat": 34.6678921,
      "lon": 135.5033089,
      "tags": {
        "amenity": "restaurant",
        "name": "大阪ステーキ"
      }
    },
    {
      "type": "node",
      "id": 2326981813,
      "lat": 34.668029,
      "lon": 135.503487,
      "tags": {
        "amenity": "restaurant",
        "name": "水魚の喜"
      }
    },
    {
      "type": "node",
      "id": 2326981936,
      "lat": 34.667876,
      "lon": 135.503383,
      "tags": {
        "amenity": "restaurant",
        "name": "八苑"
      }
    },
    {
      "type": "node",
      "id": 2326982270,
      "lat": 34.66804,
      "lon": 135.503627,
      "tags": {
        "amenity": "restaurant",
        "name": "花心"
      }
    },
    {
      "type": "node",
      "id": 2326982406,
      "lat": 34.668058,
      "lon": 135.503718,
      "tags": {
        "amenity": "restaurant",
        "name": "食道園"
      }
    },
    {
      "type": "node",
      "id": 2326982732,
      "lat": 34.668034,
      "lon": 135.503811,
      "tags": {
        "amenity": "restaurant",
        "name": "Rucola"
      }
    },
    {
      "type": "node",
      "id": 2326986086,
      "lat": 34.66733,
      "lon": 135.505459,
      "tags": {
        "amenity": "restaurant",
        "name": "常の山"
      }
    },
    {
      "type": "node",
      "id": 2328828709,
      "lat": 34.5509376,
      "lon": 135.6996077,
      "tags": {
        "amenity": "restaurant",
        "brand": "餃子の王将",
        "brand:en": "Gyoza no Ohsho",
        "brand:ja": "餃子の王将",
        "brand:wikidata": "Q11666805",
        "brand:wikipedia": "en:Gyoza no Ohsho",
        "cuisine": "chinese;gyoza",
        "name": "餃子の王将",
        "name:en": "Gyoza no Ohsho",
        "name:ja": "餃子の王将",
        "name:ja_rm": "Gyoza No Ohsho"
      }
    },
    {
      "type": "node",
      "id": 2330244768,
      "lat": 34.59225,
      "lon": 135.5070485,
      "tags": {
        "amenity": "restaurant",
        "name": "生協北食堂"
      }
    },
    {
      "type": "node",
      "id": 2332899152,
      "lat": 34.6673756,
      "lon": 135.5020209,
      "tags": {
        "amenity": "restaurant",
        "description": "伊勢海老",
        "name": "中納言"
      }
    },
    {
      "type": "node",
      "id": 2332905902,
      "lat": 34.667531,
      "lon": 135.502105,
      "tags": {
        "amenity": "restaurant",
        "name": "串の坊"
      }
    },
    {
      "type": "node",
      "id": 2332906633,
      "lat": 34.667731,
      "lon": 135.502184,
      "tags": {
        "amenity": "restaurant",
        "cuisine": "japanese",
        "description": "鯛めし",
        "name": "銀◯"
      }
    },
    {
      "type": "node",
      "id": 2332907281,
      "lat": 34.667817,
      "lon": 135.502473,
      "tags": {
        "amenity": "restaurant",
        "name": "割烹浅草"
      }
    },
    {
      "type": "node",
      "id": 2332908730,
      "lat": 34.668138,
      "lon": 135.502393,
      "tags": {
        "amenity": "restaurant",
        "name": "えび家"
      }
    },
    {
      "type": "node",
      "id": 2332908861,
      "lat": 34.668118,
      "lon": 135.502547,
      "tags": {
        "amenity": "restaurant",
        "cuisine": "yakiniku",
        "name": "松坂牛焼肉",
        "name:en": "Matsuzakagyu, Yakiniku M, Honzenji Yokocho",
        "name:es": "Matsuzakagyu yakiniku Yokocho"
      }
    },
    {
      "type": "node",
      "id": 2332909994,
      "lat": 34.668119,
      "lon": 135.502613,
      "tags": {
        "amenity": "restaurant",
        "name": "然ちゃん"
      }
    },
    {
      "type": "node",
      "id": 2332910684,
      "lat": 34.668123,
      "lon": 135.502702,
      "tags": {
        "amenity": "restaurant",
        "name": "銀家"
      }
    },
    {
      "type": "node",
      "id": 2332911579,
      "lat": 34.66823,
      "lon": 135.502693,
      "tags": {
        "amenity": "restaurant",
        "name": "お好み焼三平"
      }
    },
    {
      "type": "node",
      "id": 2332911726,
      "lat": 34.668116,
      "lon": 135.502775,
      "tags": {
        "amenity": "restaurant",
        "name": "コスコス"
      }
    },
    {
      "type": "node",
      "id": 2332912003,
      "lat": 34.66822,
      "lon": 135.502817,
      "tags": {
        "amenity": "restaurant",
        "name": "吟音"
      }
    },
    {
      "type": "node",
      "id": 2332913807,
      "lat": 34.668126,
      "lon": 135.50292,
      "tags": {
        "amenity": "restaurant",
        "name": "水かけ茶屋"
      }
    },
    {
      "type": "node",
      "id": 2332915107,
      "lat": 34.668119,
      "lon": 135.502985,
      "tags": {
        "amenity": "restaurant",
        "name": "ほてい"
      }
    },
    {
      "type": "node",
      "id": 2332915406,
      "lat": 34.668234,
      "lon": 135.502961,
      "tags": {
        "amenity": "restaurant",
        "name": "二和鳥"
      }
    },
    {
      "type": "node",
      "id": 2332917926,
      "lat": 34.668059,
      "lon": 135.503006,
      "tags": {
        "amenity": "restaurant",
        "name": "美加佐"
      }
    },
    {
      "type": "node",
      "id": 2332943316,
      "lat": 34.6688791,
      "lon": 135.5035153,
      "tags": {
        "amenity": "restaurant",
        "name": "みつる"
      }
    },
    {
      "type": "node",
      "id": 2332945244,
      "lat": 34.6688268,
      "lon": 135.5035859,
      "tags": {
        "amenity": "restaurant",
        "name": "一休"
      }
    },
    {
      "type": "node",
      "id": 2332945882,
      "lat": 34.6688334,
      "lon": 135.5036689,
      "tags": {
        "amenity": "restaurant",
        "name": "昌慶苑"
      }
    },
    {
      "type": "node",
      "id": 2332947592,
      "lat": 34.6688293,
      "lon": 135.5037611,
      "tags": {
        "amenity": "restaurant",
        "name": "わらい"
      }
    },
    {
      "type": "node",
      "id": 2332951165,
      "lat": 34.668827,
      "lon": 135.5039199,
      "tags": {
        "addr:housenumber": "5-5",
        "addr:street": "道頓堀",
        "amenity": "restaurant",
        "brand": "千房",
        "name": "千房",
        "name:en": "Chibo",
        "name:ja": "千房",
        "name:ja_rm": "Chibo",
        "website": "http://www.chibo.com/"
      }
    },
    {
      "type": "node",
      "id": 2332958599,
      "lat": 34.668832,
      "lon": 135.504657,
      "tags": {
        "amenity": "restaurant",
        "name": "けー坊"
      }
    },
    {
      "type": "node",
      "id": 2332962423,
      "lat": 34.668616,
      "lon": 135.505073,
      "tags": {
        "amenity": "restaurant",
        "name": "カレーハウス T&A"
      }
    },
    {
      "type": "node",
      "id": 2332966396,
      "lat": 34.668862,
      "lon": 135.505137,
      "tags": {
        "amenity": "restaurant",
        "name": "奴茶屋"
      }
    },
    {
      "type": "node",
      "id": 2332966470,
      "lat": 34.668864,
      "lon": 135.505076,
      "tags": {
        "amenity": "restaurant",
        "name": "すし翔"
      }
    },
    {
      "type": "node",
      "id": 2332967259,
      "lat": 34.668634,
      "lon": 135.505136,
      "tags": {
        "amenity": "restaurant",
        "name": "焼肉福家"
      }
    },
    {
      "type": "node",
      "id": 2332967614,
      "lat": 34.668845,
      "lon": 135.505351,
      "tags": {
        "amenity": "restaurant",
        "cuisine": "chinese",
        "name": "刀削麺"
      }
    },
    {
      "type": "node",
      "id": 2332969439,
      "lat": 34.668844,
      "lon": 135.505425,
      "tags": {
        "amenity": "restaurant",
        "name": "年年歳歳"
      }
    },
    {
      "type": "node",
      "id": 2332973373,
      "lat": 34.668853,
      "lon": 135.505664,
      "tags": {
        "amenity": "restaurant",
        "cuisine": "chinese",
        "name": "万宝海鮮屋",
        "name:en": "Sukiya"
      }
    },
    {
      "type": "node",
      "id": 2333102153,
      "lat": 34.66732,
      "lon": 135.505787,
      "tags": {
        "amenity": "restaurant",
        "cuisine": "chinese",
        "name": "香港楼"
      }
    },
    {
      "type": "node",
      "id": 2333102575,
      "lat": 34.668088,
      "lon": 135.506311,
      "tags": {
        "amenity": "restaurant",
        "name": "ふく伝"
      }
    },
    {
      "type": "node",
      "id": 2335206105,
      "lat": 34.666733,
      "lon": 135.506908,
      "tags": {
        "amenity": "restaurant",
        "name": "日本橋食堂"
      }
    },
    {
      "type": "node",
      "id": 2335206544,
      "lat": 34.66721,
      "lon": 135.507312,
      "tags": {
        "amenity": "restaurant",
        "name": "情熱ホルモン"
      }
    },
    {
      "type": "node",
      "id": 2335209719,
      "lat": 34.667318,
      "lon": 135.507979,
      "tags": {
        "amenity": "restaurant",
        "name": "いずみカリー"
      }
    },
    {
      "type": "node",
      "id": 2335213520,
      "lat": 34.6676695,
      "lon": 135.5069708,
      "tags": {
        "amenity": "restaurant",
        "name": "古里庵"
      }
    },
    {
      "type": "node",
      "id": 2345130383,
      "lat": 34.668068,
      "lon": 135.500701,
      "tags": {
        "amenity": "restaurant",
        "cuisine": "french",
        "name": "ぷちローザ"
      }
    },
    {
      "type": "node",
      "id": 2345130990,
      "lat": 34.668081,
      "lon": 135.501029,
      "tags": {
        "amenity": "restaurant",
        "cuisine": "okonomiyaki",
        "name": "味乃家",
        "name:es": "Ajinoya"
      }
    },
    {
      "type": "node",
      "id": 2345131072,
      "lat": 34.668066,
      "lon": 135.501131,
      "tags": {
        "amenity": "restaurant",
        "name": "月光仮面"
      }
    },
    {
      "type": "node",
      "id": 2345132033,
      "lat": 34.668622,
      "lon": 135.501117,
      "tags": {
        "amenity": "restaurant",
        "brand": "鶴橋風月",
        "name": "鶴橋風月",
        "name:en": "Tsuruhashi Fugetsu",
        "name:ja": "鶴橋風月",
        "name:ja_rm": "Tsuruhashi Fugetsu",
        "website": "http://www.ideaosaka.co.jp"
      }
    },
    {
      "type": "node",
      "id": 2345132435,
      "lat": 34.668812,
      "lon": 135.500699,
      "tags": {
        "amenity": "restaurant",
        "name": "情熱 ホルモン",
        "name:ja": "情熱 ホルモン"
      }
    },
    {
      "type": "node",
      "id": 2345132959,
      "lat": 34.668593,
      "lon": 135.500678,
      "tags": {
        "amenity": "restaurant",
        "name": "はり重うどん",
        "name:en": "Harijyu",
        "website": "https://www.harijyu.co.jp/"
      }
    },
    {
      "type": "node",
      "id": 2345134760,
      "lat": 34.669556,
      "lon": 135.5012043,
      "tags": {
        "addr:block_number": "5",
        "addr:city": "大阪市",
        "addr:country": "JP",
        "addr:housename": "Shinsaibashi Gate",
        "addr:housenumber": "5",
        "addr:neighbourhood": "2",
        "addr:province": "大阪府",
        "addr:quarter": "心斎橋筋",
        "addr:suburb": "中央区",
        "amenity": "restaurant",
        "branch": "心斎橋GATE",
        "brand": "サイゼリヤ",
        "brand:en": "Saizeriya",
        "brand:ja": "サイゼリヤ",
        "brand:wikidata": "Q886564",
        "brand:wikipedia": "en:Saizeriya",
        "cuisine": "italian",
        "level": "6",
        "name": "サイゼリヤ",
        "name:en": "Saizeriya",
        "name:ja": "サイゼリヤ",
        "name:ja_rm": "Saizeriya",
        "opening_hours": "11:00-02:00",
        "operator": "株式会社サイゼリヤ",
        "parking": "no",
        "phone": "06-6214-3660",
        "shop_id": "1077",
        "website": "https://www.saizeriya.co.jp/restaurant/shop_detail.php?cd=1077",
        "wheelchair": "yes"
      }
    },
    {
      "type": "node",
      "id": 2345135976,
      "lat": 34.670002,
      "lon": 135.50152,
      "tags": {
        "amenity": "restaurant",
        "cuisine": "pasta",
        "name": "五右衛門"
      }
    },
    {
      "type": "node",
      "id": 2345136515,
      "lat": 34.670189,
      "lon": 135.501175,
      "tags": {
        "amenity": "restaurant",
        "name": "シェーキーズ",
        "name:en": "Shakeys pizza",
        "wheelchair": "no"
      }
    },
    {
      "type": "node",
      "id": 2345136930,
      "lat": 34.670475,
      "lon": 135.500938,
      "tags": {
        "amenity": "restaurant",
        "name": "燒肉一丁",
        "opening_hours": "Mo-Su 17:00-23:00"
      }
    },
    {
      "type": "node",
      "id": 2345136936,
      "lat": 34.670445,
      "lon": 135.501042,
      "tags": {
        "amenity": "restaurant",
        "cuisine": "noodle",
        "name": "わら屋"
      }
    },
    {
      "type": "node",
      "id": 2345137223,
      "lat": 34.670441,
      "lon": 135.500998,
      "tags": {
        "amenity": "restaurant",
        "name": "えびす"
      }
    },
    {
      "type": "node",
      "id": 2345138461,
      "lat": 34.670298,
      "lon": 135.5006527,
      "tags": {
        "amenity": "restaurant",
        "cuisine": "barbecue",
        "name": "本陣"
      }
    },
    {
      "type": "node",
      "id": 2345144120,
      "lat": 34.6710257,
      "lon": 135.5015957,
      "tags": {
        "amenity": "restaurant",
        "branch": "心斎橋店",
        "name": "不二家",
        "name:en": "Fujiya"
      }
    },
    {
      "type": "node",
      "id": 2345145505,
      "lat": 34.671309,
      "lon": 135.501097,
      "tags": {
        "amenity": "restaurant",
        "name": "パスタリアーノ"
      }
    },
    {
      "type": "node",
      "id": 2345156716,
      "lat": 34.671796,
      "lon": 135.501055,
      "tags": {
        "amenity": "restaurant",
        "name": "紅虎軒"
      }
    },
    {
      "type": "node",
      "id": 2345156887,
      "lat": 34.672013,
      "lon": 135.500922,
      "tags": {
        "amenity": "restaurant",
        "name": "Pranzo"
      }
    },
    {
      "type": "node",
      "id": 2345157391,
      "lat": 34.6720613,
      "lon": 135.5014439,
      "tags": {
        "amenity": "restaurant",
        "name": "串カツだるま",
        "name:ja": "串カツだるま",
        "name:zh": "新世界元祖串炸"
      }
    },
    {
      "type": "node",
      "id": 2345158558,
      "lat": 34.672099,
      "lon": 135.501185,
      "tags": {
        "amenity": "restaurant",
        "name": "colors"
      }
    },
    {
      "type": "node",
      "id": 2345175438,
      "lat": 34.674775,
      "lon": 135.501194,
      "tags": {
        "amenity": "restaurant",
        "name": "五右衛門"
      }
    },
    {
      "type": "node",
      "id": 2345177224,
      "lat": 34.675394,
      "lon": 135.501311,
      "tags": {
        "amenity": "restaurant",
        "name": "中華九"
      }
    },
    {
      "type": "node",
      "id": 2345177598,
      "lat": 34.675753,
      "lon": 135.501563,
      "tags": {
        "amenity": "restaurant",
        "name": "和楽"
      }
    },
    {
      "type": "node",
      "id": 2345183137,
      "lat": 34.676476,
      "lon": 135.501238,
      "tags": {
        "amenity": "restaurant",
        "name": "ポポラマーマ"
      }
    },
    {
      "type": "node",
      "id": 2345183332,
      "lat": 34.676673,
      "lon": 135.501285,
      "tags": {
        "amenity": "restaurant",
        "name": "とんかつがんこ",
        "name:en": "Ippudo Nagahori Shop"
      }
    },